[{":@computed_region_kuhn_3gp2":"39",":@computed_region_q256_3sug":"19575",":@computed_region_ru88_fbhk":"50","address":"1200 W Howe St","location_1":{"type":"Point","coordinates":[-122.372985,47.636097]},"locid":"2545","name":"12th and Howe Play Park","pmaid":"281","x_coord":"-122.372985","y_coord":"47.636097","zip_code":"98119"}
,{":@computed_region_kuhn_3gp2":"41",":@computed_region_q256_3sug":"17919",":@computed_region_ru88_fbhk":"42","address":"2821 12TH Ave S","location_1":{"type":"Point","coordinates":[-122.317765,47.577953]},"locid":"2387","name":"12th Ave S Viewpoint","pmaid":"4159","x_coord":"-122.317765","y_coord":"47.577953","zip_code":"98144"}
,{":@computed_region_kuhn_3gp2":"16",":@computed_region_q256_3sug":"19578",":@computed_region_ru88_fbhk":"19","address":"564 12th Ave","location_1":{"type":"Point","coordinates":[-122.316455,47.607427]},"locid":"2382","name":"12th Ave Square Park","pmaid":"4467","x_coord":"-122.316455","y_coord":"47.607427","zip_code":"98122"}
,{":@computed_region_kuhn_3gp2":"2",":@computed_region_q256_3sug":"18386",":@computed_region_ru88_fbhk":"4","address":"4400 14th Ave NW","location_1":{"type":"Point","coordinates":[-122.373536,47.660775]},"locid":"2546","name":"14th Ave NW Boat Ramp","pmaid":"4010","x_coord":"-122.373536","y_coord":"47.660775","zip_code":"98107"}
,{":@computed_region_kuhn_3gp2":"8",":@computed_region_q256_3sug":"18789",":@computed_region_ru88_fbhk":"9","address":"3001 E Madison St","location_1":{"type":"Point","coordinates":[-122.293173,47.625169]},"locid":"296","name":"3001 E Madison","pmaid":"296","x_coord":"-122.293173","y_coord":"47.625169","zip_code":"98112"}
,{":@computed_region_kuhn_3gp2":"27",":@computed_region_q256_3sug":"18235",":@computed_region_ru88_fbhk":"33","address":"32nd Ave W","location_1":{"type":"Point","coordinates":[-122.398685,47.632345]},"locid":"0","name":"32nd Ave W Boat Launch","pmaid":"1000001","x_coord":"-122.398685","y_coord":"47.632345","zip_code":"98199"}
,{":@computed_region_kuhn_3gp2":"23",":@computed_region_q256_3sug":"18798",":@computed_region_ru88_fbhk":"23","address":"606  NW 76th St","location_1":{"type":"Point","coordinates":[-122.363566,47.684202]},"locid":"2378","name":"6th Ave NW Pocket Park","pmaid":"3158","x_coord":"-122.363566","y_coord":"47.684202","zip_code":"98117"}
,{":@computed_region_kuhn_3gp2":"2",":@computed_region_q256_3sug":"18377",":@computed_region_ru88_fbhk":"20","address":"723 N 35th St","location_1":{"type":"Point","coordinates":[-122.348826,47.650087]},"locid":"2533","name":"A. B. Ernst Park","pmaid":"4404","x_coord":"-122.348826","y_coord":"47.650087","zip_code":"98103"}
,{":@computed_region_kuhn_3gp2":"43",":@computed_region_q256_3sug":"18800",":@computed_region_ru88_fbhk":"30","address":"Lake Washington Blvd S & S Adams St","location_1":{"type":"Point","coordinates":[-122.267178,47.565219]},"locid":"0","name":"Adams Street Boat Ramp","pmaid":"1000002","x_coord":"-122.267178","y_coord":"47.565219","zip_code":"98118"}
,{":@computed_region_2day_rhn5":"117",":@computed_region_cyqu_gs94":"2",":@computed_region_kuhn_3gp2":"26",":@computed_region_q256_3sug":"19579",":@computed_region_ru88_fbhk":"29","address":"12526 27th Ave NE","location_1":{"type":"Point","coordinates":[-122.298752,47.72016]},"locid":"1886","name":"Albert Davis Park","pmaid":"244","x_coord":"-122.298752","y_coord":"47.72016","zip_code":"98125"}
,{":@computed_region_kuhn_3gp2":"49",":@computed_region_q256_3sug":"18795",":@computed_region_ru88_fbhk":"2","address":"1702 Alki Ave SW","location_1":{"type":"Point","coordinates":[-122.402173,47.582912]},"locid":"1888","name":"Alki Beach Park","pmaid":"445","x_coord":"-122.402173","y_coord":"47.582912","zip_code":"98116"}
,{":@computed_region_kuhn_3gp2":"49",":@computed_region_q256_3sug":"18795",":@computed_region_ru88_fbhk":"2","address":"5817 SW Lander St","location_1":{"type":"Point","coordinates":[-122.407312,47.578497]},"locid":"1049","name":"Alki Playground","pmaid":"446","x_coord":"-122.407312","y_coord":"47.578497","zip_code":"98116"}
,{":@computed_region_kuhn_3gp2":"8",":@computed_region_q256_3sug":"19578",":@computed_region_ru88_fbhk":"32","address":"1504 34TH Ave","location_1":{"type":"Point","coordinates":[-122.288745,47.614318]},"locid":"1891","name":"Alvin Larkins Park","pmaid":"3914","x_coord":"-122.288745","y_coord":"47.614318","zip_code":"98122"}
,{":@computed_region_kuhn_3gp2":"42",":@computed_region_q256_3sug":"17919",":@computed_region_ru88_fbhk":"38","address":"2000 Martin Luther King Jr Way S","location_1":{"type":"Point","coordinates":[-122.29742,47.584876]},"locid":"1892","name":"Amy Yee Tennis Center","pmaid":"426","x_coord":"-122.29742","y_coord":"47.584876","zip_code":"98144"}
,{":@computed_region_kuhn_3gp2":"50",":@computed_region_q256_3sug":"18795",":@computed_region_ru88_fbhk":"2","address":"4000 Beach Dr SW","location_1":{"type":"Point","coordinates":[-122.409993,47.568517]},"locid":"1894","name":"Andover Place","pmaid":"2927","x_coord":"-122.409993","y_coord":"47.568517","zip_code":"98116"}
,{":@computed_region_kuhn_3gp2":"27",":@computed_region_q256_3sug":"18235",":@computed_region_ru88_fbhk":"33","address":"3431 Arapahoe Pl W","location_1":{"type":"Point","coordinates":[-122.409139,47.65129]},"locid":"1898","name":"Arapahoe Triangle","pmaid":"1556","x_coord":"-122.409139","y_coord":"47.65129","zip_code":"98199"}
,{":@computed_region_kuhn_3gp2":"51",":@computed_region_q256_3sug":"17920",":@computed_region_ru88_fbhk":"18","address":"4120 Arroyo Dr SW","location_1":{"type":"Point","coordinates":[-122.387822,47.505679]},"locid":"1907","name":"Arroyos Natural Area","pmaid":"485","x_coord":"-122.387822","y_coord":"47.505679","zip_code":"98146"}
,{":@computed_region_kuhn_3gp2":"46",":@computed_region_q256_3sug":"18800",":@computed_region_ru88_fbhk":"51","address":"8702 Seward Park Ave S","location_1":{"type":"Point","coordinates":[-122.263078,47.522834]},"locid":"1908","name":"Atlantic City Boat Ramp","pmaid":"4081","x_coord":"-122.263078","y_coord":"47.522834","zip_code":"98118"}
,{":@computed_region_kuhn_3gp2":"42",":@computed_region_q256_3sug":"17919",":@computed_region_ru88_fbhk":"38","address":"1501 21st Ave S","location_1":{"type":"Point","coordinates":[-122.30566,47.589165]},"locid":"2541","name":"Atlantic Street Park","pmaid":"4243","x_coord":"-122.30566","y_coord":"47.589165","zip_code":"98144"}
,{":@computed_region_kuhn_3gp2":"2",":@computed_region_q256_3sug":"18377",":@computed_region_ru88_fbhk":"20","address":"4020 Fremont Ave N","location_1":{"type":"Point","coordinates":[-122.349222,47.65603]},"locid":"2552","name":"B.F. Day Playground","pmaid":"241","x_coord":"-122.349222","y_coord":"47.65603","zip_code":"98103"}
,{":@computed_region_kuhn_3gp2":"4",":@computed_region_q256_3sug":"18376",":@computed_region_ru88_fbhk":"36","address":"2548 Delmar Dr E","location_1":{"type":"Point","coordinates":[-122.318347,47.643015]},"locid":"1910","name":"Bagley Viewpoint","pmaid":"4006","x_coord":"-122.318347","y_coord":"47.643015","zip_code":"98102"}
,{":@computed_region_2day_rhn5":"131",":@computed_region_cyqu_gs94":"1",":@computed_region_kuhn_3gp2":"23",":@computed_region_q256_3sug":"18798",":@computed_region_ru88_fbhk":"3","address":"8347 14th Ave NW","location_1":{"type":"Point","coordinates":[-122.374794,47.690119]},"locid":"1911","name":"Baker Park on Crown Hill","pmaid":"2840","x_coord":"-122.374794","y_coord":"47.690119","zip_code":"98117"}
,{":@computed_region_kuhn_3gp2":"1",":@computed_region_q256_3sug":"18386",":@computed_region_ru88_fbhk":"4","address":"5701 22nd Ave NW","location_1":{"type":"Point","coordinates":[-122.385487,47.670549]},"locid":"1913","name":"Ballard Commons Park","pmaid":"4278","x_coord":"-122.385487","y_coord":"47.670549","zip_code":"98107"}
,{":@computed_region_kuhn_3gp2":"1",":@computed_region_q256_3sug":"18386",":@computed_region_ru88_fbhk":"4","address":"1702 nw 62nd St","location_1":{"type":"Point","coordinates":[-122.379116,47.674186]},"locid":"1914","name":"Ballard Corners Park","pmaid":"4428","x_coord":"-122.379116","y_coord":"47.674186","zip_code":"98107"}
,{":@computed_region_kuhn_3gp2":"1",":@computed_region_q256_3sug":"18386",":@computed_region_ru88_fbhk":"4","address":"2644 NW 60th St","location_1":{"type":"Point","coordinates":[-122.39155,47.672786]},"locid":"1108","name":"Ballard Playground","pmaid":"497","x_coord":"-122.39155","y_coord":"47.672786","zip_code":"98107"}
,{":@computed_region_kuhn_3gp2":"28",":@computed_region_q256_3sug":"18792",":@computed_region_ru88_fbhk":"53","address":"7802 Banner Way NE","location_1":{"type":"Point","coordinates":[-122.32343,47.685762]},"locid":"2553","name":"Banner Way Triangle","pmaid":"4073","x_coord":"-122.32343","y_coord":"47.685762","zip_code":"98115"}
,{":@computed_region_kuhn_3gp2":"49",":@computed_region_q256_3sug":"18795",":@computed_region_ru88_fbhk":"2","address":"6425 SW Admiral Way","location_1":{"type":"Point","coordinates":[-122.416054,47.575195]},"locid":"1919","name":"Bar-S Playground","pmaid":"3703","x_coord":"-122.416054","y_coord":"47.575195","zip_code":"98116"}
,{":@computed_region_kuhn_3gp2":"27",":@computed_region_q256_3sug":"18235",":@computed_region_ru88_fbhk":"33","address":"2614 24th Ave W","location_1":{"type":"Point","coordinates":[-122.386786,47.643802]},"locid":"1110","name":"Bayview Playground","pmaid":"303","x_coord":"-122.386786","y_coord":"47.643802","zip_code":"98199"}
,{":@computed_region_kuhn_3gp2":"40",":@computed_region_q256_3sug":"19575",":@computed_region_ru88_fbhk":"50","address":"3rd Ave W & W Prospect St","location_1":{"type":"Point","coordinates":[-122.360626,47.628948]},"locid":"0","name":"Bayview-Kinnear (Lower Kerry Park)","pmaid":"1000342","x_coord":"-122.360626","y_coord":"47.628948","zip_code":"98119"}
,{":@computed_region_kuhn_3gp2":"41",":@computed_region_q256_3sug":"17919",":@computed_region_ru88_fbhk":"42","address":"1902 13th Ave S","location_1":{"type":"Point","coordinates":[-122.315325,47.586226]},"locid":"1074","name":"Beacon Hill Playground","pmaid":"400","x_coord":"-122.315325","y_coord":"47.586226","zip_code":"98144"}
,{":@computed_region_kuhn_3gp2":"16",":@computed_region_q256_3sug":"18379",":@computed_region_ru88_fbhk":"26","address":"1110 S Dearborn St","location_1":{"type":"Point","coordinates":[-122.318716,47.596236]},"locid":"1923","name":"Beacon Place","pmaid":"3119","x_coord":"-122.318716","y_coord":"47.596236","zip_code":"98104"}
,{":@computed_region_kuhn_3gp2":"28",":@computed_region_q256_3sug":"19579",":@computed_region_ru88_fbhk":"46","address":"5th Ave NE & NE 103rd St","location_1":{"type":"Point","coordinates":[-122.323168,47.703288]},"locid":"1075","name":"Beaver Pond Natural Area on Thornton Creek","pmaid":"4481","x_coord":"-122.323168","y_coord":"47.703288","zip_code":"98125"}
,{":@computed_region_kuhn_3gp2":"47",":@computed_region_q256_3sug":"18383",":@computed_region_ru88_fbhk":"60","address":"5809 15th Ave NE","location_1":{"type":"Point","coordinates":[-122.312027,47.671888]},"locid":"0","name":"Beck Place","pmaid":"4028","x_coord":"-122.312027","y_coord":"47.671888","zip_code":"98105"}
,{":@computed_region_kuhn_3gp2":"45",":@computed_region_q256_3sug":"18800",":@computed_region_ru88_fbhk":"51","address":"8650 55th Ave S","location_1":{"type":"Point","coordinates":[-122.263223,47.524191]},"locid":"1925","name":"Beer Sheva Park","pmaid":"440","x_coord":"-122.263223","y_coord":"47.524191","zip_code":"98118"}
,{":@computed_region_kuhn_3gp2":"9",":@computed_region_q256_3sug":"19576",":@computed_region_ru88_fbhk":"5","address":"1st to 5th Ave on Bell St","location_1":{"type":"Point","coordinates":[-122.344866,47.614696]},"locid":"2543","name":"Bell Street Park","pmaid":"4472","x_coord":"-122.344866","y_coord":"47.614696","zip_code":"98121"}
,{":@computed_region_kuhn_3gp2":"4",":@computed_region_q256_3sug":"18376",":@computed_region_ru88_fbhk":"16","address":"Bellevue Ave E & Bellevue Pl E","location_1":{"type":"Point","coordinates":[-122.327658,47.626904]},"locid":"1182","name":"Bellevue Place","pmaid":"4022","x_coord":"-122.327658","y_coord":"47.626904","zip_code":"98102"}
,{":@computed_region_kuhn_3gp2":"9",":@computed_region_q256_3sug":"19576",":@computed_region_ru88_fbhk":"5","address":"2512 Elliott Ave","location_1":{"type":"Point","coordinates":[-122.350776,47.613889]},"locid":"1186","name":"Belltown Cottage Park","pmaid":"4415","x_coord":"-122.350776","y_coord":"47.613889","zip_code":"98121"}
,{":@computed_region_kuhn_3gp2":"4",":@computed_region_q256_3sug":"18376",":@computed_region_ru88_fbhk":"44","address":"703 Belmont Pl E","location_1":{"type":"Point","coordinates":[-122.324408,47.625727]},"locid":"1290","name":"Belmont Place","pmaid":"346","x_coord":"-122.324408","y_coord":"47.625727","zip_code":"98102"}
,{":@computed_region_kuhn_3gp2":"49",":@computed_region_q256_3sug":"19581",":@computed_region_ru88_fbhk":"41","address":"3600 SW Admiral Way","location_1":{"type":"Point","coordinates":[-122.376896,47.580673]},"locid":"1188","name":"Belvedere Park","pmaid":"447","x_coord":"-122.376896","y_coord":"47.580673","zip_code":"98126"}
,{":@computed_region_kuhn_3gp2":"48",":@computed_region_q256_3sug":"18383",":@computed_region_ru88_fbhk":"55","address":"3659 42nd Ave NE","location_1":{"type":"Point","coordinates":[-122.283215,47.655124]},"locid":"1189","name":"Belvoir Place","pmaid":"475","x_coord":"-122.283215","y_coord":"47.655124","zip_code":"98105"}
,{":@computed_region_kuhn_3gp2":"44",":@computed_region_q256_3sug":"18800",":@computed_region_ru88_fbhk":"58","address":"9320 38th Ave S","location_1":{"type":"Point","coordinates":[-122.284294,47.518998]},"locid":"1077","name":"Benefit Playground","pmaid":"436","x_coord":"-122.284294","y_coord":"47.518998","zip_code":"98118"}
,{":@computed_region_kuhn_3gp2":"42",":@computed_region_q256_3sug":"17919",":@computed_region_ru88_fbhk":"38","address":"1401 23rd Ave S","location_1":{"type":"Point","coordinates":[-122.303029,47.589841]},"locid":"1190","name":"Benvenuto Viewpoint","pmaid":"4245","x_coord":"-122.303029","y_coord":"47.589841","zip_code":"98122"}
,{":@computed_region_kuhn_3gp2":"1",":@computed_region_q256_3sug":"18386",":@computed_region_ru88_fbhk":"4","address":"5420 22nd Ave NW","location_1":{"type":"Point","coordinates":[-122.384495,47.66833]},"locid":"1191","name":"Bergen Place","pmaid":"253","x_coord":"-122.384495","y_coord":"47.66833","zip_code":"98107"}
,{":@computed_region_kuhn_3gp2":"39",":@computed_region_q256_3sug":"18390",":@computed_region_ru88_fbhk":"50","address":"1215 5th Ave N","location_1":{"type":"Point","coordinates":[-122.348403,47.630426]},"locid":"1193","name":"Bhy Kracke Park","pmaid":"304","x_coord":"-122.348403","y_coord":"47.630426","zip_code":"98109"}
,{":@computed_region_2day_rhn5":"123",":@computed_region_cyqu_gs94":"1",":@computed_region_kuhn_3gp2":"32",":@computed_region_q256_3sug":"19582",":@computed_region_ru88_fbhk":"6","address":"13035 Linden Ave N","location_1":{"type":"Point","coordinates":[-122.349314,47.724209]},"locid":"1113","name":"Bitter Lake Playfield","pmaid":"288","x_coord":"-122.349314","y_coord":"47.724209","zip_code":"98133"}
,{":@computed_region_2day_rhn5":"116",":@computed_region_cyqu_gs94":"1",":@computed_region_kuhn_3gp2":"32",":@computed_region_q256_3sug":"19582",":@computed_region_ru88_fbhk":"6","address":"14201 Linden Ave N","location_1":{"type":"Point","coordinates":[-122.348583,47.731181]},"locid":"1194","name":"Bitter Lake Reservoir Open Space","pmaid":"4450","x_coord":"-122.348583","y_coord":"47.731181","zip_code":"98133"}
,{":@computed_region_kuhn_3gp2":"40",":@computed_region_q256_3sug":"19575",":@computed_region_ru88_fbhk":"50","address":"513 W Olympic Pl","location_1":{"type":"Point","coordinates":[-122.364152,47.626809]},"locid":"1196","name":"Blaine Place","pmaid":"3907","x_coord":"-122.364152","y_coord":"47.626809","zip_code":"98119"}
,{":@computed_region_kuhn_3gp2":"42",":@computed_region_q256_3sug":"17919",":@computed_region_ru88_fbhk":"38","address":"1520 26th Ave S","location_1":{"type":"Point","coordinates":[-122.297814,47.589982]},"locid":"1198","name":"Blue Dog Pond","pmaid":"4418","x_coord":"-122.297814","y_coord":"47.589982","zip_code":"98144"}
,{":@computed_region_2day_rhn5":"130",":@computed_region_cyqu_gs94":"1",":@computed_region_kuhn_3gp2":"32",":@computed_region_q256_3sug":"18229",":@computed_region_ru88_fbhk":"3","address":"1851 NW Blue Ridge Dr","location_1":{"type":"Point","coordinates":[-122.380095,47.70439]},"locid":"1199","name":"Blue Ridge Circle","pmaid":"238","x_coord":"-122.380095","y_coord":"47.70439","zip_code":"98117"}
,{":@computed_region_2day_rhn5":"130",":@computed_region_cyqu_gs94":"1",":@computed_region_kuhn_3gp2":"32",":@computed_region_q256_3sug":"18229",":@computed_region_ru88_fbhk":"3","address":"Radford Ave NW & NW Milford Way","location_1":{"type":"Point","coordinates":[-122.381171,47.703423]},"locid":"1200","name":"Blue Ridge Place","pmaid":"239","x_coord":"-122.381171","y_coord":"47.703423","zip_code":"98117"}
,{":@computed_region_kuhn_3gp2":"16",":@computed_region_q256_3sug":"18379",":@computed_region_ru88_fbhk":"19","address":"321 Broadway","location_1":{"type":"Point","coordinates":[-122.320952,47.604999]},"locid":"0","name":"Boren Place","pmaid":"348","x_coord":"-122.320952","y_coord":"47.604999","zip_code":"98122"}
,{":@computed_region_kuhn_3gp2":"12",":@computed_region_q256_3sug":"19578",":@computed_region_ru88_fbhk":"8","address":"815 Broadway","location_1":{"type":"Point","coordinates":[-122.32094,47.609976]},"locid":"1202","name":"Boylston Place","pmaid":"349","x_coord":"-122.32094","y_coord":"47.609976","zip_code":"98104"}
,{":@computed_region_kuhn_3gp2":"42",":@computed_region_q256_3sug":"17919",":@computed_region_ru88_fbhk":"38","address":"1730 Bradner Pl S","location_1":{"type":"Point","coordinates":[-122.295426,47.587419]},"locid":"1203","name":"Bradner Gardens Park","pmaid":"401","x_coord":"-122.295426","y_coord":"47.587419","zip_code":"98144"}
,{":@computed_region_kuhn_3gp2":"43",":@computed_region_q256_3sug":"18800",":@computed_region_ru88_fbhk":"15","address":"6000 39th Ave S","location_1":{"type":"Point","coordinates":[-122.2821,47.548387]},"locid":"1115","name":"Brighton Playfield","pmaid":"402","x_coord":"-122.2821","y_coord":"47.548387","zip_code":"98118"}
,{":@computed_region_2day_rhn5":"124",":@computed_region_cyqu_gs94":"1",":@computed_region_kuhn_3gp2":"32",":@computed_region_q256_3sug":"19582",":@computed_region_ru88_fbhk":"6","address":"Greenwood Ave N & N 122nd St","location_1":{"type":"Point","coordinates":[-122.355836,47.717936]},"locid":"1207","name":"Broadview Park","pmaid":"3997","x_coord":"-122.355836","y_coord":"47.717936","zip_code":"98133"}
,{":@computed_region_kuhn_3gp2":"48",":@computed_region_q256_3sug":"18792",":@computed_region_ru88_fbhk":"55","address":"4103 NE 65th St","location_1":{"type":"Point","coordinates":[-122.283644,47.675299]},"locid":"1082","name":"Bryant Neighborhood Playground","pmaid":"482","x_coord":"-122.283644","y_coord":"47.675299","zip_code":"98115"}
,{":@computed_region_kuhn_3gp2":"48",":@computed_region_q256_3sug":"18383",":@computed_region_ru88_fbhk":"55","address":"5201 Sand Point Way NE","location_1":{"type":"Point","coordinates":[-122.282623,47.666634]},"locid":"1083","name":"Burke-Gilman Playground Park","pmaid":"496","x_coord":"-122.282623","y_coord":"47.666634","zip_code":"98105"}
,{":@computed_region_kuhn_3gp2":"11",":@computed_region_q256_3sug":"19578",":@computed_region_ru88_fbhk":"8","address":"1635 11th Ave","location_1":{"type":"Point","coordinates":[-122.319134,47.617013]},"locid":"1211","name":"Cal Anderson Park and Bobby Morris Playfield","pmaid":"3102","x_coord":"-122.319134","y_coord":"47.617013","zip_code":"98122"}
,{":@computed_region_kuhn_3gp2":"49",":@computed_region_q256_3sug":"18795",":@computed_region_ru88_fbhk":"41","address":"2099 California Ave SW","location_1":{"type":"Point","coordinates":[-122.386696,47.585641]},"locid":"1212","name":"California Place","pmaid":"448","x_coord":"-122.386696","y_coord":"47.585641","zip_code":"98116"}
,{":@computed_region_kuhn_3gp2":"50",":@computed_region_q256_3sug":"18385",":@computed_region_ru88_fbhk":"45","address":"5200 35th Ave SW","location_1":{"type":"Point","coordinates":[-122.373161,47.556242]},"locid":"1213","name":"Camp Long","pmaid":"4154","x_coord":"-122.373161","y_coord":"47.556242","zip_code":"98126"}
,{":@computed_region_2day_rhn5":"136",":@computed_region_cyqu_gs94":"1",":@computed_region_kuhn_3gp2":"32",":@computed_region_q256_3sug":"18229",":@computed_region_ru88_fbhk":"6","address":"950 NW Carkeek Park Rd","location_1":{"type":"Point","coordinates":[-122.379763,47.712194]},"locid":"1227","name":"Carkeek Park","pmaid":"240","x_coord":"-122.379763","y_coord":"47.712194","zip_code":"98117"}
,{":@computed_region_kuhn_3gp2":"27",":@computed_region_q256_3sug":"18235",":@computed_region_ru88_fbhk":"33","address":"2319 Westmont Way W","location_1":{"type":"Point","coordinates":[-122.406385,47.639414]},"locid":"1232","name":"Carleton Center","pmaid":"305","x_coord":"-122.406385","y_coord":"47.639414","zip_code":"98199"}
,{":@computed_region_kuhn_3gp2":"27",":@computed_region_q256_3sug":"18235",":@computed_region_ru88_fbhk":"33","address":"3298 Perkins Ln W","location_1":{"type":"Point","coordinates":[-122.415934,47.650028]},"locid":"1233","name":"Carleton Highlands","pmaid":"4049","x_coord":"-122.415934","y_coord":"47.650028","zip_code":"98199"}
,{":@computed_region_kuhn_3gp2":"2",":@computed_region_q256_3sug":"18386",":@computed_region_ru88_fbhk":"47","address":"5119 Palmer Ct NW","location_1":{"type":"Point","coordinates":[-122.358092,47.666216]},"locid":"1235","name":"Cascade Place","pmaid":"3902","x_coord":"-122.358092","y_coord":"47.666216","zip_code":"98107"}
,{":@computed_region_kuhn_3gp2":"10",":@computed_region_q256_3sug":"18390",":@computed_region_ru88_fbhk":"56","address":"333 Pontius Ave N","location_1":{"type":"Point","coordinates":[-122.332355,47.621405]},"locid":"1117","name":"Cascade Playground","pmaid":"350","x_coord":"-122.332355","y_coord":"47.621405","zip_code":"98109"}
,{":@computed_region_2day_rhn5":"118",":@computed_region_cyqu_gs94":"2",":@computed_region_kuhn_3gp2":"29",":@computed_region_q256_3sug":"19579",":@computed_region_ru88_fbhk":"29","address":"3737 NE 135th St","location_1":{"type":"Point","coordinates":[-122.288042,47.725808]},"locid":"1237","name":"Cedar Park","pmaid":"4167","x_coord":"-122.288042","y_coord":"47.725808","zip_code":"98125"}
,{":@computed_region_kuhn_3gp2":"15",":@computed_region_q256_3sug":"18388",":@computed_region_ru88_fbhk":"59","address":"700 S Cloverdale St","location_1":{"type":"Point","coordinates":[-122.32562,47.52678]},"locid":"1245","name":"Cesar Chavez Park","pmaid":"4448","x_coord":"-122.32562","y_coord":"47.52678","zip_code":"98108"}
,{":@computed_region_kuhn_3gp2":"49",":@computed_region_q256_3sug":"18795",":@computed_region_ru88_fbhk":"2","address":"3521 Beach Dr SW","location_1":{"type":"Point","coordinates":[-122.413877,47.57242]},"locid":"2497","name":"Charles Richey Sr Viewpoint","pmaid":"80","x_coord":"-122.413877","y_coord":"47.57242","zip_code":"98116"}
,{":@computed_region_kuhn_3gp2":"41",":@computed_region_q256_3sug":"17919",":@computed_region_ru88_fbhk":"42","address":"Cheasty Blvd S & S Della St","location_1":{"type":"Point","coordinates":[-122.299204,47.572682]},"locid":"2532","name":"Cheasty Boulevard","pmaid":"4214","x_coord":"-122.299204","y_coord":"47.572682","zip_code":"98144"}
,{":@computed_region_kuhn_3gp2":"41",":@computed_region_q256_3sug":"17919",":@computed_region_ru88_fbhk":"42","address":"Cheasty Blvd S & S Della St","location_1":{"type":"Point","coordinates":[-122.299204,47.572682]},"locid":"2021","name":"Cheasty GS: Cheasty Blvd","pmaid":"258","x_coord":"-122.299204","y_coord":"47.572682","zip_code":"98144"}
,{":@computed_region_kuhn_3gp2":"46",":@computed_region_q256_3sug":"18800",":@computed_region_ru88_fbhk":"52","address":"700 S Cloverdale St","location_1":{"type":"Point","coordinates":[-122.258376,47.520135]},"locid":"1249","name":"Chinook Beach Park","pmaid":"421","x_coord":"-122.258376","y_coord":"47.520135","zip_code":"98118"}
,{":@computed_region_kuhn_3gp2":"38",":@computed_region_q256_3sug":"18383",":@computed_region_ru88_fbhk":"60","address":"817 NE 43rd St","location_1":{"type":"Point","coordinates":[-122.319072,47.659308]},"locid":"1250","name":"Christie Park","pmaid":"595","x_coord":"-122.319072","y_coord":"47.659308","zip_code":"98105"}
,{":@computed_region_kuhn_3gp2":"22",":@computed_region_q256_3sug":"18379",":@computed_region_ru88_fbhk":"14","address":"450 3rd Ave","location_1":{"type":"Point","coordinates":[-122.329875,47.602022]},"locid":"1252","name":"City Hall Park","pmaid":"306","x_coord":"-122.329875","y_coord":"47.602022","zip_code":"98119"}
,{":@computed_region_kuhn_3gp2":"37",":@computed_region_q256_3sug":"18388",":@computed_region_ru88_fbhk":"34","address":"5512 13th Ave S","location_1":{"type":"Point","coordinates":[-122.315542,47.552012]},"locid":"2026","name":"Cleveland Playfield","pmaid":"404","x_coord":"-122.315542","y_coord":"47.552012","zip_code":"98108"}
,{":@computed_region_kuhn_3gp2":"39",":@computed_region_q256_3sug":"19575",":@computed_region_ru88_fbhk":"50","address":"2420 7th Ave W","location_1":{"type":"Point","coordinates":[-122.365952,47.640108]},"locid":"1261","name":"Coe Play Park","pmaid":"3985","x_coord":"-122.365952","y_coord":"47.640108","zip_code":"98119"}
,{":@computed_region_kuhn_3gp2":"42",":@computed_region_q256_3sug":"17919",":@computed_region_ru88_fbhk":"38","address":"30th Ave S & S College St","location_1":{"type":"Point","coordinates":[-122.294616,47.582697]},"locid":"2503","name":"College Street Park","pmaid":"3922","x_coord":"-122.294616","y_coord":"47.582697","zip_code":"98144"}
,{":@computed_region_kuhn_3gp2":"49",":@computed_region_q256_3sug":"18795",":@computed_region_ru88_fbhk":"41","address":"5050 SW College St","location_1":{"type":"Point","coordinates":[-122.395546,47.583406]},"locid":"2504","name":"College Street Ravine","pmaid":"260","x_coord":"-122.395546","y_coord":"47.583406","zip_code":"98116"}
,{":@computed_region_kuhn_3gp2":"42",":@computed_region_q256_3sug":"17919",":@computed_region_ru88_fbhk":"38","address":"1800 Lake Washington Blvd S","location_1":{"type":"Point","coordinates":[-122.288612,47.58547]},"locid":"1263","name":"Colman Park","pmaid":"405","x_coord":"-122.288612","y_coord":"47.58547","zip_code":"98144"}
,{":@computed_region_kuhn_3gp2":"42",":@computed_region_q256_3sug":"17919",":@computed_region_ru88_fbhk":"38","address":"1740 23rd Ave S","location_1":{"type":"Point","coordinates":[-122.301957,47.587625]},"locid":"1121","name":"Colman Playground","pmaid":"406","x_coord":"-122.301957","y_coord":"47.587625","zip_code":"98122"}
,{":@computed_region_kuhn_3gp2":"43",":@computed_region_q256_3sug":"18800",":@computed_region_ru88_fbhk":"11","address":"4721 Rainier Ave S","location_1":{"type":"Point","coordinates":[-122.287394,47.559792]},"locid":"1271","name":"Columbia Park","pmaid":"4034","x_coord":"-122.287394","y_coord":"47.559792","zip_code":"98118"}
,{":@computed_region_kuhn_3gp2":"27",":@computed_region_q256_3sug":"18235",":@computed_region_ru88_fbhk":"33","address":"3330 W Commodore Way","location_1":{"type":"Point","coordinates":[-122.40014,47.66538]},"locid":"1272","name":"Commodore Park","pmaid":"308","x_coord":"-122.40014","y_coord":"47.66538","zip_code":"98107"}
,{":@computed_region_kuhn_3gp2":"3",":@computed_region_q256_3sug":"18377",":@computed_region_ru88_fbhk":"61","address":"2166 N 50th St","location_1":{"type":"Point","coordinates":[-122.330874,47.665198]},"locid":"1275","name":"Corliss Place","pmaid":"4017","x_coord":"-122.330874","y_coord":"47.665198","zip_code":"98103"}
,{":@computed_region_kuhn_3gp2":"50",":@computed_region_q256_3sug":"18795",":@computed_region_ru88_fbhk":"2","address":"3701 Beach Dr SW","location_1":{"type":"Point","coordinates":[-122.412089,47.570984]},"locid":"1276","name":"Cormorant Cove","pmaid":"295","x_coord":"-122.412089","y_coord":"47.570984","zip_code":"98116"}
,{":@computed_region_kuhn_3gp2":"13",":@computed_region_q256_3sug":"18385",":@computed_region_ru88_fbhk":"45","address":"5206 26th Ave SW","location_1":{"type":"Point","coordinates":[-122.365311,47.554364]},"locid":"1277","name":"Cottage Grove Park","pmaid":"4462","x_coord":"-122.365311","y_coord":"47.554364","zip_code":"98106"}
,{":@computed_region_kuhn_3gp2":"40",":@computed_region_q256_3sug":"18390",":@computed_region_ru88_fbhk":"50","address":"700 Queen Anne Ave N","location_1":{"type":"Point","coordinates":[-122.356323,47.625683]},"locid":"1084","name":"Counterbalance Park: An Urban Oasis","pmaid":"4438","x_coord":"-122.356323","y_coord":"47.625683","zip_code":"98109"}
,{":@computed_region_kuhn_3gp2":"47",":@computed_region_q256_3sug":"18792",":@computed_region_ru88_fbhk":"53","address":"5849 15th Ave NE","location_1":{"type":"Point","coordinates":[-122.313072,47.672596]},"locid":"1279","name":"Cowen Park","pmaid":"483","x_coord":"-122.313072","y_coord":"47.672596","zip_code":"98105"}
,{":@computed_region_kuhn_3gp2":"25",":@computed_region_q256_3sug":"18377",":@computed_region_ru88_fbhk":"53","address":"7515 Orin Ct N","location_1":{"type":"Point","coordinates":[-122.333029,47.684317]},"locid":"1280","name":"Crescent Place","pmaid":"4018","x_coord":"-122.333029","y_coord":"47.684317","zip_code":"98103"}
,{":@computed_region_2day_rhn5":"131",":@computed_region_cyqu_gs94":"1",":@computed_region_kuhn_3gp2":"21",":@computed_region_q256_3sug":"18798",":@computed_region_ru88_fbhk":"3","address":"8735 19th Ave NW","location_1":{"type":"Point","coordinates":[-122.381394,47.693703]},"locid":"1281","name":"Crown Hill Glen","pmaid":"4070","x_coord":"-122.381394","y_coord":"47.693703","zip_code":"98117"}
,{":@computed_region_2day_rhn5":"131",":@computed_region_cyqu_gs94":"1",":@computed_region_kuhn_3gp2":"32",":@computed_region_q256_3sug":"18798",":@computed_region_ru88_fbhk":"3","address":"9089 Holman Rd NW","location_1":{"type":"Point","coordinates":[-122.373976,47.696071]},"locid":"1282","name":"Crown Hill Park","pmaid":"4469","x_coord":"-122.373976","y_coord":"47.696071","zip_code":"98117"}
,{":@computed_region_kuhn_3gp2":"41",":@computed_region_q256_3sug":"17919",":@computed_region_ru88_fbhk":"42","address":"1144 Sturgus Ave S","location_1":{"type":"Point","coordinates":[-122.312163,47.59192]},"locid":"1285","name":"Daejeon Park","pmaid":"4400","x_coord":"-122.312163","y_coord":"47.59192","zip_code":"98144"}
,{":@computed_region_kuhn_3gp2":"48",":@computed_region_q256_3sug":"18792",":@computed_region_ru88_fbhk":"55","address":"7700 25th Ave NE","location_1":{"type":"Point","coordinates":[-122.299309,47.685267]},"locid":"1819","name":"Dahl Playfield","pmaid":"499","x_coord":"-122.299309","y_coord":"47.685267","zip_code":"98115"}
,{":@computed_region_kuhn_3gp2":"50",":@computed_region_q256_3sug":"18795",":@computed_region_ru88_fbhk":"1","address":"4304 SW Dakota St","location_1":{"type":"Point","coordinates":[-122.387164,47.566844]},"locid":"1287","name":"Dakota Place Park","pmaid":"575","x_coord":"-122.387164","y_coord":"47.566844","zip_code":"98116"}
,{":@computed_region_kuhn_3gp2":"39",":@computed_region_q256_3sug":"19575",":@computed_region_ru88_fbhk":"50","address":"2800 1st Ave W","location_1":{"type":"Point","coordinates":[-122.359484,47.644135]},"locid":"1289","name":"David Rodgers Park","pmaid":"331","x_coord":"-122.359484","y_coord":"47.644135","zip_code":"98119"}
,{":@computed_region_kuhn_3gp2":"18",":@computed_region_q256_3sug":"17919",":@computed_region_ru88_fbhk":"39","address":"1402 Lakeside Ave S","location_1":{"type":"Point","coordinates":[-122.285154,47.59026]},"locid":"2505","name":"Day Street Boat Ramp","pmaid":"4082","x_coord":"-122.285154","y_coord":"47.59026","zip_code":"98144"}
,{":@computed_region_kuhn_3gp2":"44",":@computed_region_q256_3sug":"18388",":@computed_region_ru88_fbhk":"34","address":"2919 S Brandon St","location_1":{"type":"Point","coordinates":[-122.296225,47.553389]},"locid":"1291","name":"Dearborn Park","pmaid":"408","x_coord":"-122.296225","y_coord":"47.553389","zip_code":"98126"}
,{":@computed_region_kuhn_3gp2":"13",":@computed_region_q256_3sug":"18385",":@computed_region_ru88_fbhk":"45","address":"4458 Delridge Way SW","location_1":{"type":"Point","coordinates":[-122.364371,47.562842]},"locid":"1124","name":"Delridge Playfield","pmaid":"450","x_coord":"-122.364371","y_coord":"47.562842","zip_code":"98106"}
,{":@computed_region_kuhn_3gp2":"8",":@computed_region_q256_3sug":"18789",":@computed_region_ru88_fbhk":"32","address":"100 Maiden Ln E","location_1":{"type":"Point","coordinates":[-122.284838,47.61833]},"locid":"1298","name":"Denny Blaine Lake Park","pmaid":"3980","x_coord":"-122.284838","y_coord":"47.61833","zip_code":"98112"}
,{":@computed_region_kuhn_3gp2":"8",":@computed_region_q256_3sug":"18789",":@computed_region_ru88_fbhk":"32","address":"200 Lake Washington Blvd E","location_1":{"type":"Point","coordinates":[-122.280548,47.62011]},"locid":"1300","name":"Denny Blaine Park","pmaid":"3982","x_coord":"-122.280548","y_coord":"47.62011","zip_code":"98112"}
,{":@computed_region_kuhn_3gp2":"7",":@computed_region_q256_3sug":"18390",":@computed_region_ru88_fbhk":"56","address":"100 Dexter Ave N","location_1":{"type":"Point","coordinates":[-122.341049,47.61913]},"locid":"1297","name":"Denny Park","pmaid":"309","x_coord":"-122.341049","y_coord":"47.61913","zip_code":"98109"}
,{":@computed_region_kuhn_3gp2":"27",":@computed_region_q256_3sug":"18235",":@computed_region_ru88_fbhk":"33","address":"3801 Discovery Park Blvd","location_1":{"type":"Point","coordinates":[-122.415282,47.66083]},"locid":"1301","name":"Discovery Park","pmaid":"310","x_coord":"-122.415282","y_coord":"47.66083","zip_code":"98199"}
,{":@computed_region_kuhn_3gp2":"49",":@computed_region_q256_3sug":"19581",":@computed_region_ru88_fbhk":"2","address":"1222 Harbor Ave SW","location_1":{"type":"Point","coordinates":[-122.382295,47.59274]},"locid":"1085","name":"Don Armeni Park","pmaid":"3917","x_coord":"-122.382295","y_coord":"47.59274","zip_code":"98116"}
,{":@computed_region_kuhn_3gp2":"17",":@computed_region_q256_3sug":"17919",":@computed_region_ru88_fbhk":"28","address":"2100 S Jackson St","location_1":{"type":"Point","coordinates":[-122.304179,47.600278]},"locid":"2496","name":"Dr. Blanche Lavizzo Park","pmaid":"395","x_coord":"-122.304179","y_coord":"47.600278","zip_code":"98144"}
,{":@computed_region_kuhn_3gp2":"41",":@computed_region_q256_3sug":"17919",":@computed_region_ru88_fbhk":"42","address":"1007 12th Ave S","location_1":{"type":"Point","coordinates":[-122.318094,47.593859]},"locid":"2490","name":"Dr. Jose Rizal Park","pmaid":"433","x_coord":"-122.318094","y_coord":"47.593859","zip_code":"98144"}
,{":@computed_region_kuhn_3gp2":"13",":@computed_region_q256_3sug":"18388",":@computed_region_ru88_fbhk":"59","address":"7900 10th Ave S","location_1":{"type":"Point","coordinates":[-122.319694,47.531156]},"locid":"1304","name":"Duwamish Waterway Park","pmaid":"705","x_coord":"-122.319694","y_coord":"47.531156","zip_code":"98106"}
,{":@computed_region_kuhn_3gp2":"14",":@computed_region_q256_3sug":"19581",":@computed_region_ru88_fbhk":"54","address":"2805 SW Holden St","location_1":{"type":"Point","coordinates":[-122.369545,47.532805]},"locid":"2534","name":"E.C. Hughes Playground","pmaid":"458","x_coord":"-122.369545","y_coord":"47.532805","zip_code":"98126"}
,{":@computed_region_kuhn_3gp2":"6",":@computed_region_q256_3sug":"18789",":@computed_region_ru88_fbhk":"36","address":"2802 E Park Drive East","location_1":{"type":"Point","coordinates":[-122.301441,47.646662]},"locid":"1305","name":"East Montlake Park","pmaid":"374","x_coord":"-122.301441","y_coord":"47.646662","zip_code":"98112"}
,{":@computed_region_kuhn_3gp2":"18",":@computed_region_q256_3sug":"17919",":@computed_region_ru88_fbhk":"39","address":"1400 Lake Washington Blvd S","location_1":{"type":"Point","coordinates":[-122.287893,47.590222]},"locid":"2507","name":"East Portal Viewpoint","pmaid":"4241","x_coord":"-122.287893","y_coord":"47.590222","zip_code":"98144"}
,{":@computed_region_kuhn_3gp2":"39",":@computed_region_q256_3sug":"18390",":@computed_region_ru88_fbhk":"50","address":"1912 Warren Ave N","location_1":{"type":"Point","coordinates":[-122.353786,47.636139]},"locid":"2535","name":"East Queen Anne Playground","pmaid":"329","x_coord":"-122.353786","y_coord":"47.636139","zip_code":"98109"}
,{":@computed_region_kuhn_3gp2":"10",":@computed_region_q256_3sug":"18390",":@computed_region_ru88_fbhk":"56","address":"10th Ave E & E Prospect St","location_1":{"type":"Point","coordinates":[-122.328918,47.62841]},"locid":"0","name":"Eastlake Triangle","pmaid":"3977","x_coord":"-122.328918","y_coord":"47.62841","zip_code":"98109"}
,{":@computed_region_kuhn_3gp2":"27",":@computed_region_q256_3sug":"18235",":@computed_region_ru88_fbhk":"33","address":"2201 Westmont Way W","location_1":{"type":"Point","coordinates":[-122.405566,47.637689]},"locid":"1308","name":"Eastmont Place","pmaid":"4012","x_coord":"-122.405566","y_coord":"47.637689","zip_code":"98199"}
,{":@computed_region_2day_rhn5":"135",":@computed_region_kuhn_3gp2":"21",":@computed_region_q256_3sug":"18798",":@computed_region_ru88_fbhk":"3","address":"8001 Seaview Ave NW","location_1":{"type":"Point","coordinates":[-122.403454,47.686852]},"locid":"0","name":"Eddie Vine Boat Ramp","pmaid":"1000003","x_coord":"-122.403454","y_coord":"47.686852","zip_code":"98117"}
,{":@computed_region_kuhn_3gp2":"27",":@computed_region_q256_3sug":"18235",":@computed_region_ru88_fbhk":"33","address":"2601 W Smith St","location_1":{"type":"Point","coordinates":[-122.39106,47.640584]},"locid":"1311","name":"Ella Bailey Park","pmaid":"318","x_coord":"-122.39106","y_coord":"47.640584","zip_code":"98199"}
,{":@computed_region_kuhn_3gp2":"50",":@computed_region_q256_3sug":"18795",":@computed_region_ru88_fbhk":"2","address":"4503 Beach Dr SW","location_1":{"type":"Point","coordinates":[-122.40712,47.562898]},"locid":"1086","name":"Emma Schmitz Memorial Overlook","pmaid":"3920","x_coord":"-122.40712","y_coord":"47.562898","zip_code":"98116"}
,{":@computed_region_kuhn_3gp2":"51",":@computed_region_q256_3sug":"17916",":@computed_region_ru88_fbhk":"18","address":"9827 49th Ave SW","location_1":{"type":"Point","coordinates":[-122.39438,47.514542]},"locid":"1314","name":"Endolyne Park","pmaid":"1653","x_coord":"-122.39438","y_coord":"47.514542","zip_code":"98116"}
,{":@computed_region_kuhn_3gp2":"51",":@computed_region_q256_3sug":"17916",":@computed_region_ru88_fbhk":"18","address":"4542 48th Ave SW","location_1":{"type":"Point","coordinates":[-122.394275,47.515021]},"locid":"1316","name":"Ercolini Park","pmaid":"4454","x_coord":"-122.394275","y_coord":"47.515021","zip_code":"98116"}
,{":@computed_region_kuhn_3gp2":"50",":@computed_region_q256_3sug":"19581",":@computed_region_ru88_fbhk":"1","address":"5400 Fauntleroy Way SW","location_1":{"type":"Point","coordinates":[-122.380549,47.554041]},"locid":"1127","name":"Fairmount Playfield","pmaid":"452","x_coord":"-122.380549","y_coord":"47.554041","zip_code":"98136"}
,{":@computed_region_kuhn_3gp2":"10",":@computed_region_q256_3sug":"18376",":@computed_region_ru88_fbhk":"17","address":"2900 Fairview Ave E","location_1":{"type":"Point","coordinates":[-122.325368,47.647413]},"locid":"1323","name":"Fairview Park","pmaid":"2975","x_coord":"-122.325368","y_coord":"47.647413","zip_code":"98102"}
,{":@computed_region_kuhn_3gp2":"10",":@computed_region_q256_3sug":"18390",":@computed_region_ru88_fbhk":"56","address":"1251 Fairview Ave. N","location_1":{"type":"Point","coordinates":[-122.328967,47.630501]},"locid":"1461","name":"Fairview Walkway","pmaid":"4155","x_coord":"-122.328967","y_coord":"47.630501","zip_code":"98109"}
,{":@computed_region_kuhn_3gp2":"51",":@computed_region_q256_3sug":"17916",":@computed_region_ru88_fbhk":"18","address":"9102 Fauntleroy Way SW","location_1":{"type":"Point","coordinates":[-122.392498,47.522599]},"locid":"1324","name":"Fauntleroy Creek Ravine","pmaid":"3149","x_coord":"-122.392498","y_coord":"47.522599","zip_code":"98136"}
,{":@computed_region_kuhn_3gp2":"51",":@computed_region_q256_3sug":"17916",":@computed_region_ru88_fbhk":"18","address":"3951 SW Barton St","location_1":{"type":"Point","coordinates":[-122.383222,47.5192]},"locid":"1325","name":"Fauntleroy Park","pmaid":"453","x_coord":"-122.383222","y_coord":"47.5192","zip_code":"98136"}
,{":@computed_region_kuhn_3gp2":"50",":@computed_region_q256_3sug":"19581",":@computed_region_ru88_fbhk":"1","address":"4501 Fauntleroy Way SW","location_1":{"type":"Point","coordinates":[-122.379834,47.562715]},"locid":"1326","name":"Fauntleroy Place","pmaid":"3921","x_coord":"-122.379834","y_coord":"47.562715","zip_code":"98126"}
,{":@computed_region_kuhn_3gp2":"43",":@computed_region_q256_3sug":"18800",":@computed_region_ru88_fbhk":"30","address":"5018 Lake Washington Blvd S","location_1":{"type":"Point","coordinates":[-122.264912,47.561358]},"locid":"2498","name":"Ferdinand Street Boat Ramp","pmaid":"413","x_coord":"-122.264912","y_coord":"47.561358","zip_code":"98118"}
,{":@computed_region_kuhn_3gp2":"17",":@computed_region_q256_3sug":"19578",":@computed_region_ru88_fbhk":"9","address":"712 18th Ave","location_1":{"type":"Point","coordinates":[-122.308558,47.608448]},"locid":"1331","name":"Firehouse Mini Park","pmaid":"351","x_coord":"-122.308558","y_coord":"47.608448","zip_code":"98122"}
,{":@computed_region_kuhn_3gp2":"12",":@computed_region_q256_3sug":"18081",":@computed_region_ru88_fbhk":"19","address":"1201 University St","location_1":{"type":"Point","coordinates":[-122.325512,47.611906]},"locid":"1332","name":"First Hill Park","pmaid":"3910","x_coord":"-122.325512","y_coord":"47.611906","zip_code":"98101"}
,{":@computed_region_kuhn_3gp2":"46",":@computed_region_q256_3sug":"18800",":@computed_region_ru88_fbhk":"51","address":"9285 Waters Ave S","location_1":{"type":"Point","coordinates":[-122.261484,47.519093]},"locid":"1333","name":"Fletcher Place","pmaid":"3948","x_coord":"-122.261484","y_coord":"47.519093","zip_code":"98118"}
,{":@computed_region_kuhn_3gp2":"18",":@computed_region_q256_3sug":"17919",":@computed_region_ru88_fbhk":"32","address":"2800 S Jackson St","location_1":{"type":"Point","coordinates":[-122.295868,47.599557]},"locid":"1334","name":"Flo Ware Park","pmaid":"363","x_coord":"-122.295868","y_coord":"47.599557","zip_code":"98144"}
,{":@computed_region_kuhn_3gp2":"12",":@computed_region_q256_3sug":"18081",":@computed_region_ru88_fbhk":"19","address":"700 Seneca St","location_1":{"type":"Point","coordinates":[-122.330904,47.609472]},"locid":"2390","name":"Freeway Park - Jim Ellis Freeway Park","pmaid":"312","x_coord":"-122.330904","y_coord":"47.609472","zip_code":"98101"}
,{":@computed_region_kuhn_3gp2":"2",":@computed_region_q256_3sug":"18386",":@computed_region_ru88_fbhk":"20","address":"199 N Canal St","location_1":{"type":"Point","coordinates":[-122.357864,47.651802]},"locid":"1341","name":"Fremont Canal Park","pmaid":"4011","x_coord":"-122.357864","y_coord":"47.651802","zip_code":"98103"}
,{":@computed_region_kuhn_3gp2":"2",":@computed_region_q256_3sug":"18377",":@computed_region_ru88_fbhk":"20","address":"4357 Palatine Ave N","location_1":{"type":"Point","coordinates":[-122.356671,47.661108]},"locid":"1343","name":"Fremont Peak Park","pmaid":"4424","x_coord":"-122.356671","y_coord":"47.661108","zip_code":"98103"}
,{":@computed_region_kuhn_3gp2":"18",":@computed_region_q256_3sug":"17919",":@computed_region_ru88_fbhk":"32","address":"398 Lake Washington Blvd S","location_1":{"type":"Point","coordinates":[-122.290256,47.599506]},"locid":"1345","name":"Frink Park","pmaid":"392","x_coord":"-122.290256","y_coord":"47.599506","zip_code":"98144"}
,{":@computed_region_kuhn_3gp2":"47",":@computed_region_q256_3sug":"18792",":@computed_region_ru88_fbhk":"53","address":"7200 12th Ave NE","location_1":{"type":"Point","coordinates":[-122.313978,47.680538]},"locid":"1128","name":"Froula Playground","pmaid":"287","x_coord":"-122.313978","y_coord":"47.680538","zip_code":"98115"}
,{":@computed_region_kuhn_3gp2":"17",":@computed_region_q256_3sug":"19578",":@computed_region_ru88_fbhk":"9","address":"537 25th Ave","location_1":{"type":"Point","coordinates":[-122.301412,47.607098]},"locid":"1130","name":"Garfield Playfield","pmaid":"353","x_coord":"-122.301412","y_coord":"47.607098","zip_code":"98122"}
,{":@computed_region_kuhn_3gp2":"3",":@computed_region_q256_3sug":"18377",":@computed_region_ru88_fbhk":"61","address":"2101 N Northlake Way","location_1":{"type":"Point","coordinates":[-122.334906,47.645639]},"locid":"1349","name":"Gas Works Park","pmaid":"293","x_coord":"-122.334906","y_coord":"47.645639","zip_code":"98103"}
,{":@computed_region_kuhn_3gp2":"43",":@computed_region_q256_3sug":"18800",":@computed_region_ru88_fbhk":"21","address":"4316 S Genesee St","location_1":{"type":"Point","coordinates":[-122.278744,47.564856]},"locid":"1786","name":"Genesee Park and Playfield","pmaid":"409","x_coord":"-122.278744","y_coord":"47.564856","zip_code":"98118"}
,{":@computed_region_kuhn_3gp2":"37",":@computed_region_q256_3sug":"18388",":@computed_region_ru88_fbhk":"22","address":"750 S Homer St","location_1":{"type":"Point","coordinates":[-122.321396,47.55162]},"locid":"2094","name":"Georgetown Playfield","pmaid":"410","x_coord":"-122.321396","y_coord":"47.55162","zip_code":"98108"}
,{":@computed_region_kuhn_3gp2":"17",":@computed_region_q256_3sug":"19578",":@computed_region_ru88_fbhk":"9","address":"575 M L King Jr Way S","location_1":{"type":"Point","coordinates":[-122.296568,47.607709]},"locid":"1359","name":"Gerber Park","pmaid":"3759","x_coord":"-122.296568","y_coord":"47.607709","zip_code":"98122"}
,{":@computed_region_kuhn_3gp2":"2",":@computed_region_q256_3sug":"18386",":@computed_region_ru88_fbhk":"4","address":"923 NW 54th St","location_1":{"type":"Point","coordinates":[-122.369684,47.667292]},"locid":"1134","name":"Gilman Playground","pmaid":"242","x_coord":"-122.369684","y_coord":"47.667292","zip_code":"98107"}
,{":@computed_region_2day_rhn5":"135",":@computed_region_kuhn_3gp2":"21",":@computed_region_q256_3sug":"18798",":@computed_region_ru88_fbhk":"3","address":"8498 Seaview Pl NW","location_1":{"type":"Point","coordinates":[-122.403454,47.686852]},"locid":"1361","name":"Golden Gardens Park","pmaid":"243","x_coord":"-122.403454","y_coord":"47.686852","zip_code":"98117"}
,{":@computed_region_kuhn_3gp2":"4",":@computed_region_q256_3sug":"18376",":@computed_region_ru88_fbhk":"44","address":"1200 E Howe St","location_1":{"type":"Point","coordinates":[-122.316261,47.636461]},"locid":"1346","name":"Grand Army of the Republic Cemetery","pmaid":"354","x_coord":"-122.316261","y_coord":"47.636461","zip_code":"98102"}
,{":@computed_region_kuhn_3gp2":"25",":@computed_region_q256_3sug":"18377",":@computed_region_ru88_fbhk":"53","address":"7201 E Greenlake Dr N","location_1":{"type":"Point","coordinates":[-122.330394,47.678938]},"locid":"1366","name":"Green Lake Park","pmaid":"307","x_coord":"-122.330394","y_coord":"47.678938","zip_code":"98115"}
,{":@computed_region_kuhn_3gp2":"21",":@computed_region_q256_3sug":"18377",":@computed_region_ru88_fbhk":"23","address":"602 N 87th St","location_1":{"type":"Point","coordinates":[-122.350647,47.693048]},"locid":"1369","name":"Greenwood Park","pmaid":"4408","x_coord":"-122.350647","y_coord":"47.693048","zip_code":"98117"}
,{":@computed_region_kuhn_3gp2":"2",":@computed_region_q256_3sug":"18386",":@computed_region_ru88_fbhk":"4","address":"304 NW 55th St","location_1":{"type":"Point","coordinates":[-122.361032,47.668902]},"locid":"1371","name":"Greenwood Triangle","pmaid":"245","x_coord":"-122.361032","y_coord":"47.668902","zip_code":"98107"}
,{":@computed_region_kuhn_3gp2":"13",":@computed_region_q256_3sug":"18385",":@computed_region_ru88_fbhk":"45","address":"2600 SW Brandon St","location_1":{"type":"Point","coordinates":[-122.366001,47.55437]},"locid":"1372","name":"Greg Davis Park","pmaid":"4157","x_coord":"-122.366001","y_coord":"47.55437","zip_code":"98106"}
,{":@computed_region_kuhn_3gp2":"49",":@computed_region_q256_3sug":"18795",":@computed_region_ru88_fbhk":"41","address":"1120 California Ave SW","location_1":{"type":"Point","coordinates":[-122.38907,47.590748]},"locid":"1375","name":"Hamilton Viewpoint Park","pmaid":"454","x_coord":"-122.38907","y_coord":"47.590748","zip_code":"98116"}
,{":@computed_region_kuhn_3gp2":"16",":@computed_region_q256_3sug":"18379",":@computed_region_ru88_fbhk":"19","address":"779 Alder St","location_1":{"type":"Point","coordinates":[-122.323693,47.603014]},"locid":"0","name":"Harborview Park","pmaid":"355","x_coord":"-122.323693","y_coord":"47.603014","zip_code":"98104"}
,{":@computed_region_kuhn_3gp2":"8",":@computed_region_q256_3sug":"18789",":@computed_region_ru88_fbhk":"32","address":"138 32nd Ave E","location_1":{"type":"Point","coordinates":[-122.290339,47.619711]},"locid":"1377","name":"Harrison Ridge Greenbelt","pmaid":"356","x_coord":"-122.290339","y_coord":"47.619711","zip_code":"98112"}
,{":@computed_region_kuhn_3gp2":"4",":@computed_region_q256_3sug":"18376",":@computed_region_ru88_fbhk":"36","address":"2351 Broadway E","location_1":{"type":"Point","coordinates":[-122.321643,47.641091]},"locid":"1378","name":"Harvard-Miller/Roanoke Annex","pmaid":"3695","x_coord":"-122.321643","y_coord":"47.641091","zip_code":"98102"}
,{":@computed_region_kuhn_3gp2":"13",":@computed_region_q256_3sug":"18385",":@computed_region_ru88_fbhk":"12","address":"4570 West Marginal Way SW","location_1":{"type":"Point","coordinates":[-122.349545,47.561514]},"locid":"1381","name":"Herring's House Park (T'ul'altx)","pmaid":"4412","x_coord":"-122.349545","y_coord":"47.561514","zip_code":"98106"}
,{":@computed_region_kuhn_3gp2":"49",":@computed_region_q256_3sug":"18795",":@computed_region_ru88_fbhk":"41","address":"2700 California Ave SW","location_1":{"type":"Point","coordinates":[-122.384965,47.578272]},"locid":"1788","name":"Hiawatha Playfield","pmaid":"456","x_coord":"-122.384965","y_coord":"47.578272","zip_code":"98116"}
,{":@computed_region_kuhn_3gp2":"40",":@computed_region_q256_3sug":"18390",":@computed_region_ru88_fbhk":"50","address":"165 Highland Dr","location_1":{"type":"Point","coordinates":[-122.353337,47.629736]},"locid":"1383","name":"Highland Drive Parkway","pmaid":"3983","x_coord":"-122.353337","y_coord":"47.629736","zip_code":"98109"}
,{":@computed_region_kuhn_3gp2":"15",":@computed_region_q256_3sug":"18385",":@computed_region_ru88_fbhk":"25","address":"1100 SW Cloverdale St","location_1":{"type":"Point","coordinates":[-122.349034,47.52738]},"locid":"1137","name":"Highland Park Playground","pmaid":"457","x_coord":"-122.349034","y_coord":"47.52738","zip_code":"98106"}
,{":@computed_region_kuhn_3gp2":"40",":@computed_region_q256_3sug":"18390",":@computed_region_ru88_fbhk":"50","address":"93 Highland Dr","location_1":{"type":"Point","coordinates":[-122.355466,47.629656]},"locid":"1384","name":"Highland Place","pmaid":"3979","x_coord":"-122.355466","y_coord":"47.629656","zip_code":"98109"}
,{":@computed_region_kuhn_3gp2":"22",":@computed_region_q256_3sug":"18379",":@computed_region_ru88_fbhk":"27","address":"423 Maynard Ave S","location_1":{"type":"Point","coordinates":[-122.325435,47.598609]},"locid":"1093","name":"Hing Hay Park","pmaid":"358","x_coord":"-122.325435","y_coord":"47.598609","zip_code":"98104"}
,{":@computed_region_kuhn_3gp2":"43",":@computed_region_q256_3sug":"18800",":@computed_region_ru88_fbhk":"11","address":"5234 37th Ave S","location_1":{"type":"Point","coordinates":[-122.28455,47.554207]},"locid":"1389","name":"Hitt's Hill Park","pmaid":"4413","x_coord":"-122.28455","y_coord":"47.554207","zip_code":"98118"}
,{":@computed_region_kuhn_3gp2":"8",":@computed_region_q256_3sug":"19578",":@computed_region_ru88_fbhk":"9","address":"2401 E Howell St","location_1":{"type":"Point","coordinates":[-122.300994,47.617309]},"locid":"1392","name":"Homer Harris Park","pmaid":"4426","x_coord":"-122.300994","y_coord":"47.617309","zip_code":"98122"}
,{":@computed_region_kuhn_3gp2":"16",":@computed_region_q256_3sug":"19578",":@computed_region_ru88_fbhk":"19","address":"156 Boren Ave","location_1":{"type":"Point","coordinates":[-122.318982,47.603132]},"locid":"1394","name":"Horiuchi Park","pmaid":"43","x_coord":"-122.318982","y_coord":"47.603132","zip_code":"98122"}
,{":@computed_region_kuhn_3gp2":"42",":@computed_region_q256_3sug":"17919",":@computed_region_ru88_fbhk":"38","address":"3298 36th Ave S","location_1":{"type":"Point","coordinates":[-122.287187,47.573846]},"locid":"1396","name":"Horton Hill Corridor","pmaid":"3927","x_coord":"-122.287187","y_coord":"47.573846","zip_code":"98144"}
,{":@computed_region_kuhn_3gp2":"8",":@computed_region_q256_3sug":"18789",":@computed_region_ru88_fbhk":"32","address":"1740 Howell Pl","location_1":{"type":"Point","coordinates":[-122.280313,47.617518]},"locid":"1397","name":"Howell Park","pmaid":"359","x_coord":"-122.280313","y_coord":"47.617518","zip_code":"98122"}
,{":@computed_region_kuhn_3gp2":"28",":@computed_region_q256_3sug":"19579",":@computed_region_ru88_fbhk":"46","address":"11203 5th Ave NE","location_1":{"type":"Point","coordinates":[-122.324674,47.709964]},"locid":"1398","name":"Hubbard Homestead","pmaid":"4456","x_coord":"-122.324674","y_coord":"47.709964","zip_code":"98125"}
,{":@computed_region_kuhn_3gp2":"42",":@computed_region_q256_3sug":"17919",":@computed_region_ru88_fbhk":"38","address":"3299 Hunter Blvd S","location_1":{"type":"Point","coordinates":[-122.285153,47.573877]},"locid":"2391","name":"Hunter Boulevard","pmaid":"4032","x_coord":"-122.285153","y_coord":"47.573877","zip_code":"98144"}
,{":@computed_region_kuhn_3gp2":"46",":@computed_region_q256_3sug":"18800",":@computed_region_ru88_fbhk":"52","address":"59th Ave S & S Norfolk St","location_1":{"type":"Point","coordinates":[-122.260062,47.514312]},"locid":"1089","name":"Hutchinson Playground","pmaid":"439","x_coord":"-122.260062","y_coord":"47.514312","zip_code":"98118"}
,{":@computed_region_kuhn_3gp2":"8",":@computed_region_q256_3sug":"18789",":@computed_region_ru88_fbhk":"31","address":"3811 E Madison St","location_1":{"type":"Point","coordinates":[-122.282887,47.632304]},"locid":"1399","name":"Hyde Place","pmaid":"3905","x_coord":"-122.282887","y_coord":"47.632304","zip_code":"98112"}
,{":@computed_region_kuhn_3gp2":"10",":@computed_region_q256_3sug":"18376",":@computed_region_ru88_fbhk":"17","address":"1701 Lakeview Blvd E","location_1":{"type":"Point","coordinates":[-122.323409,47.634898]},"locid":"1400","name":"I-5 Colonnade","pmaid":"4446","x_coord":"-122.323409","y_coord":"47.634898","zip_code":"98102"}
,{":@computed_region_kuhn_3gp2":"27",":@computed_region_q256_3sug":"19575",":@computed_region_ru88_fbhk":"33","address":"3027 17th Ave W","location_1":{"type":"Point","coordinates":[-122.379191,47.647239]},"locid":"1821","name":"Interbay Athletic Complex","pmaid":"3887","x_coord":"-122.379191","y_coord":"47.647239","zip_code":"98119"}
,{":@computed_region_kuhn_3gp2":"27",":@computed_region_q256_3sug":"19575",":@computed_region_ru88_fbhk":"33","address":"2501 15th Ave W","location_1":{"type":"Point","coordinates":[-122.378455,47.643753]},"locid":"1407","name":"Interbay Golf","pmaid":"313","x_coord":"-122.378455","y_coord":"47.643753","zip_code":"98119"}
,{":@computed_region_kuhn_3gp2":"6",":@computed_region_q256_3sug":"18789",":@computed_region_ru88_fbhk":"36","address":"2451 Delmar Dr E","location_1":{"type":"Point","coordinates":[-122.308316,47.636257]},"locid":"1412","name":"Interlaken Park","pmaid":"3023","x_coord":"-122.308316","y_coord":"47.636257","zip_code":"98102"}
,{":@computed_region_kuhn_3gp2":"22",":@computed_region_q256_3sug":"18379",":@computed_region_ru88_fbhk":"27","address":"700 S Lane St","location_1":{"type":"Point","coordinates":[-122.323412,47.596897]},"locid":"1413","name":"International Children's Park","pmaid":"364","x_coord":"-122.323412","y_coord":"47.596897","zip_code":"98104"}
,{":@computed_region_kuhn_3gp2":"48",":@computed_region_q256_3sug":"18792",":@computed_region_ru88_fbhk":"55","address":"8619 45th Ave NE","location_1":{"type":"Point","coordinates":[-122.280809,47.691145]},"locid":"1095","name":"Inverness Ravine Park","pmaid":"4001","x_coord":"-122.280809","y_coord":"47.691145","zip_code":"98115"}
,{":@computed_region_2day_rhn5":"117",":@computed_region_cyqu_gs94":"2",":@computed_region_kuhn_3gp2":"26",":@computed_region_q256_3sug":"19579",":@computed_region_ru88_fbhk":"46","address":"1100 NE 135th St","location_1":{"type":"Point","coordinates":[-122.319103,47.729254]},"locid":"1790","name":"Jackson Park Golf Course","pmaid":"327","x_coord":"-122.319103","y_coord":"47.729254","zip_code":"98125"}
,{":@computed_region_kuhn_3gp2":"6",":@computed_region_q256_3sug":"18789",":@computed_region_ru88_fbhk":"36","address":"1075 Lake Washington Blvd E","location_1":{"type":"Point","coordinates":[-122.2952,47.627312]},"locid":"0","name":"Japanese Garden","pmaid":"1000393","x_coord":"-122.2952","y_coord":"47.627312","zip_code":"98112"}
,{":@computed_region_kuhn_3gp2":"41",":@computed_region_q256_3sug":"18388",":@computed_region_ru88_fbhk":"42","address":"3801 Beacon Ave S","location_1":{"type":"Point","coordinates":[-122.311441,47.568067]},"locid":"1434","name":"Jefferson Park","pmaid":"114","x_coord":"-122.311441","y_coord":"47.568067","zip_code":"98108"}
,{":@computed_region_kuhn_3gp2":"41",":@computed_region_q256_3sug":"18388",":@computed_region_ru88_fbhk":"42","address":"4101 Beacon Ave S","location_1":{"type":"Point","coordinates":[-122.305242,47.567202]},"locid":"1791","name":"Jefferson Park Golf Course","pmaid":"4153","x_coord":"-122.305242","y_coord":"47.567202","zip_code":"98108"}
,{":@computed_region_kuhn_3gp2":"42",":@computed_region_q256_3sug":"17919",":@computed_region_ru88_fbhk":"38","address":"2400 S Massachusetts St","location_1":{"type":"Point","coordinates":[-122.300842,47.588907]},"locid":"1437","name":"Jimi Hendrix Park","pmaid":"3121","x_coord":"-122.300842","y_coord":"47.588907","zip_code":"98144"}
,{":@computed_region_kuhn_3gp2":"44",":@computed_region_q256_3sug":"18800",":@computed_region_ru88_fbhk":"40","address":"6961 37th Ave S","location_1":{"type":"Point","coordinates":[-122.286686,47.539048]},"locid":"2560","name":"John C. Little, Sr. Park","pmaid":"429","x_coord":"-122.286686","y_coord":"47.539048","zip_code":"98118"}
,{":@computed_region_kuhn_3gp2":"18",":@computed_region_q256_3sug":"17919",":@computed_region_ru88_fbhk":"43","address":"20th Ave S & S Judkins St","location_1":{"type":"Point","coordinates":[-122.306962,47.591632]},"locid":"2491","name":"Judge Charles M. Stokes Overlook","pmaid":"4244","x_coord":"-122.306962","y_coord":"47.591632","zip_code":"98144"}
,{":@computed_region_kuhn_3gp2":"18",":@computed_region_q256_3sug":"17919",":@computed_region_ru88_fbhk":"43","address":"2150 S Norman St","location_1":{"type":"Point","coordinates":[-122.303951,47.592425]},"locid":"1097","name":"Judkins Park and Playfield","pmaid":"397","x_coord":"-122.303951","y_coord":"47.592425","zip_code":"98144"}
,{":@computed_region_kuhn_3gp2":"50",":@computed_region_q256_3sug":"18795",":@computed_region_ru88_fbhk":"1","address":"42nd Ave SW & SW Alaska St","location_1":{"type":"Point","coordinates":[-122.385491,47.561204]},"locid":"1439","name":"Junction Plaza","pmaid":"4455","x_coord":"-122.385491","y_coord":"47.561204","zip_code":"98116"}
,{":@computed_region_kuhn_3gp2":"41",":@computed_region_q256_3sug":"17919",":@computed_region_ru88_fbhk":"42","address":"1150 S Atlantic St","location_1":{"type":"Point","coordinates":[-122.317642,47.590421]},"locid":"1098","name":"Katie Black's Garden","pmaid":"3122","x_coord":"-122.317642","y_coord":"47.590421","zip_code":"98144"}
,{":@computed_region_kuhn_3gp2":"40",":@computed_region_q256_3sug":"19575",":@computed_region_ru88_fbhk":"50","address":"211 W Highland Dr","location_1":{"type":"Point","coordinates":[-122.359874,47.629023]},"locid":"2374","name":"Kerry Park","pmaid":"342","x_coord":"-122.359874","y_coord":"47.629023","zip_code":"98119"}
,{":@computed_region_kuhn_3gp2":"3",":@computed_region_q256_3sug":"18377",":@computed_region_ru88_fbhk":"61","address":"5664 Keystone Pl N","location_1":{"type":"Point","coordinates":[-122.333769,47.670304]},"locid":"1440","name":"Keystone Place","pmaid":"3880","x_coord":"-122.333769","y_coord":"47.670304","zip_code":"98103"}
,{":@computed_region_kuhn_3gp2":"51",":@computed_region_q256_3sug":"17916",":@computed_region_ru88_fbhk":"18","address":"9131 California Ave SW","location_1":{"type":"Point","coordinates":[-122.388277,47.52133]},"locid":"1441","name":"Kilbourne Park","pmaid":"459","x_coord":"-122.388277","y_coord":"47.52133","zip_code":"98136"}
,{":@computed_region_kuhn_3gp2":"28",":@computed_region_q256_3sug":"19579",":@computed_region_ru88_fbhk":"29","address":"15th Ave NE & NE 105th St","location_1":{"type":"Point","coordinates":[-122.312411,47.704889]},"locid":"1099","name":"Kingfisher Natural Area on Thornton Creek","pmaid":"4480","x_coord":"-122.312411","y_coord":"47.704889","zip_code":"98125"}
,{":@computed_region_kuhn_3gp2":"39",":@computed_region_q256_3sug":"19575",":@computed_region_ru88_fbhk":"50","address":"899 W Olympic Pl","location_1":{"type":"Point","coordinates":[-122.367207,47.627317]},"locid":"1442","name":"Kinnear Park","pmaid":"314","x_coord":"-122.367207","y_coord":"47.627317","zip_code":"98119"}
,{":@computed_region_kuhn_3gp2":"23",":@computed_region_q256_3sug":"18798",":@computed_region_ru88_fbhk":"3","address":"7028 9th Ave NW","location_1":{"type":"Point","coordinates":[-122.368021,47.680338]},"locid":"1444","name":"Kirke Park","pmaid":"4468","x_coord":"-122.368021","y_coord":"47.680338","zip_code":"98117"}
,{":@computed_region_kuhn_3gp2":"27",":@computed_region_q256_3sug":"18235",":@computed_region_ru88_fbhk":"33","address":"4441 Brygger Dr W","location_1":{"type":"Point","coordinates":[-122.401004,47.66197]},"locid":"1100","name":"Kiwanis Memorial Preserve Park","pmaid":"246","x_coord":"-122.401004","y_coord":"47.66197","zip_code":"98199"}
,{":@computed_region_kuhn_3gp2":"27",":@computed_region_q256_3sug":"18235",":@computed_region_ru88_fbhk":"33","address":"4531 33rd Ave W","location_1":{"type":"Point","coordinates":[-122.403237,47.660251]},"locid":"1448","name":"Kiwanis Memorial Preserve Park","pmaid":"4429","x_coord":"-122.403237","y_coord":"47.660251","zip_code":"98199"}
,{":@computed_region_kuhn_3gp2":"22",":@computed_region_q256_3sug":"18379",":@computed_region_ru88_fbhk":"27","address":"650 Main St","location_1":{"type":"Point","coordinates":[-122.324494,47.60042]},"locid":"1449","name":"Kobe Terrace","pmaid":"3915","x_coord":"-122.324494","y_coord":"47.60042","zip_code":"98104"}
,{":@computed_region_kuhn_3gp2":"46",":@computed_region_q256_3sug":"18800",":@computed_region_ru88_fbhk":"52","address":"9817 55th Ave S","location_1":{"type":"Point","coordinates":[-122.266125,47.513543]},"locid":"1450","name":"Kubota Garden","pmaid":"415","x_coord":"-122.266125","y_coord":"47.513543","zip_code":"98118"}
,{":@computed_region_2day_rhn5":"117",":@computed_region_cyqu_gs94":"2",":@computed_region_kuhn_3gp2":"29",":@computed_region_q256_3sug":"19579",":@computed_region_ru88_fbhk":"29","address":"12356 Lake City Way NE","location_1":{"type":"Point","coordinates":[-122.295266,47.718819]},"locid":"1457","name":"Lake City Memorial Triangle","pmaid":"333","x_coord":"-122.295266","y_coord":"47.718819","zip_code":"98125"}
,{":@computed_region_2day_rhn5":"117",":@computed_region_cyqu_gs94":"2",":@computed_region_kuhn_3gp2":"29",":@computed_region_q256_3sug":"19579",":@computed_region_ru88_fbhk":"29","address":"12359 Lake City Way NE","location_1":{"type":"Point","coordinates":[-122.295875,47.71911]},"locid":"1458","name":"Lake City Mini Park","pmaid":"487","x_coord":"-122.295875","y_coord":"47.71911","zip_code":"98125"}
,{":@computed_region_kuhn_3gp2":"42",":@computed_region_q256_3sug":"18388",":@computed_region_ru88_fbhk":"10","address":"3100 S Bradford st","location_1":{"type":"Point","coordinates":[-122.292012,47.569133]},"locid":"1459","name":"Lake People Park (Xacua'bs)","pmaid":"4439","x_coord":"-122.292012","y_coord":"47.569133","zip_code":"98108"}
,{":@computed_region_kuhn_3gp2":"7",":@computed_region_q256_3sug":"18390",":@computed_region_ru88_fbhk":"50","address":"860 Terry Ave N","location_1":{"type":"Point","coordinates":[-122.338848,47.627015]},"locid":"1460","name":"Lake Union Park","pmaid":"344","x_coord":"-122.338848","y_coord":"47.627015","zip_code":"98109"}
,{":@computed_region_kuhn_3gp2":"46",":@computed_region_q256_3sug":"18230",":@computed_region_ru88_fbhk":"52","address":"10201 Holyoke Way S","location_1":{"type":"Point","coordinates":[-122.247429,47.506033]},"locid":"1462","name":"Lakeridge Park","pmaid":"411","x_coord":"-122.247429","y_coord":"47.506033","zip_code":"98178"}
,{":@computed_region_kuhn_3gp2":"46",":@computed_region_q256_3sug":"18230",":@computed_region_ru88_fbhk":"52","address":"10145 Rainier Ave S","location_1":{"type":"Point","coordinates":[-122.246841,47.510319]},"locid":"1140","name":"Lakeridge Playfield","pmaid":"3972","x_coord":"-122.246841","y_coord":"47.510319","zip_code":"98178"}
,{":@computed_region_kuhn_3gp2":"8",":@computed_region_q256_3sug":"18789",":@computed_region_ru88_fbhk":"32","address":"340 37th Ave E","location_1":{"type":"Point","coordinates":[-122.284732,47.62205]},"locid":"1463","name":"Lakeview Park","pmaid":"365","x_coord":"-122.284732","y_coord":"47.62205","zip_code":"98112"}
,{":@computed_region_kuhn_3gp2":"4",":@computed_region_q256_3sug":"18376",":@computed_region_ru88_fbhk":"16","address":"1042 Lakeview Blvd E","location_1":{"type":"Point","coordinates":[-122.325705,47.62939]},"locid":"1464","name":"Lakeview Place","pmaid":"366","x_coord":"-122.325705","y_coord":"47.62939","zip_code":"98102"}
,{":@computed_region_kuhn_3gp2":"43",":@computed_region_q256_3sug":"18800",":@computed_region_ru88_fbhk":"30","address":"4400 Lake Washington Blvd S","location_1":{"type":"Point","coordinates":[-122.268295,47.562981]},"locid":"1465","name":"Lakewood Moorage","pmaid":"4040","x_coord":"-122.268295","y_coord":"47.562981","zip_code":"98118"}
,{":@computed_region_kuhn_3gp2":"43",":@computed_region_q256_3sug":"18800",":@computed_region_ru88_fbhk":"30","address":"5013 S Angeline St","location_1":{"type":"Point","coordinates":[-122.27006,47.558831]},"locid":"2167","name":"Lakewood Playfield","pmaid":"414","x_coord":"-122.27006","y_coord":"47.558831","zip_code":"98118"}
,{":@computed_region_kuhn_3gp2":"42",":@computed_region_q256_3sug":"17919",":@computed_region_ru88_fbhk":"38","address":"3114 Cascadia Ave S","location_1":{"type":"Point","coordinates":[-122.28372,47.576058]},"locid":"1466","name":"Lakewood Triangle","pmaid":"4024","x_coord":"-122.28372","y_coord":"47.576058","zip_code":"98144"}
,{":@computed_region_kuhn_3gp2":"6",":@computed_region_q256_3sug":"18789",":@computed_region_ru88_fbhk":"31","address":"3800 E Madison St","location_1":{"type":"Point","coordinates":[-122.283837,47.632017]},"locid":"0","name":"Lambert Place","pmaid":"3096","x_coord":"-122.283837","y_coord":"47.632017","zip_code":"98112"}
,{":@computed_region_kuhn_3gp2":"42",":@computed_region_q256_3sug":"17919",":@computed_region_ru88_fbhk":"38","address":"4099 S Horton St","location_1":{"type":"Point","coordinates":[-122.283396,47.573861]},"locid":"1468","name":"Landing Parkway","pmaid":"3929","x_coord":"-122.283396","y_coord":"47.573861","zip_code":"98144"}
,{":@computed_region_kuhn_3gp2":"48",":@computed_region_q256_3sug":"18383",":@computed_region_ru88_fbhk":"55","address":"4544 NE 41st St","location_1":{"type":"Point","coordinates":[-122.278019,47.65989]},"locid":"1142","name":"Laurelhurst Playfield","pmaid":"340","x_coord":"-122.278019","y_coord":"47.65989","zip_code":"98105"}
,{":@computed_region_kuhn_3gp2":"48",":@computed_region_q256_3sug":"18383",":@computed_region_ru88_fbhk":"55","address":"3325 East Laurelhurst Dr NE","location_1":{"type":"Point","coordinates":[-122.277487,47.652696]},"locid":"1053","name":"Laurelhurst Triangle","pmaid":"4162","x_coord":"-122.277487","y_coord":"47.652696","zip_code":"98105"}
,{":@computed_region_kuhn_3gp2":"29",":@computed_region_q256_3sug":"19579",":@computed_region_ru88_fbhk":"29","address":"Ravenna Ave NE & NE 100th St","location_1":{"type":"Point","coordinates":[-122.299926,47.701262]},"locid":"1102","name":"LaVilla Meadows Natural Area on Thornton Creek","pmaid":"4482","x_coord":"-122.299926","y_coord":"47.701262","zip_code":"98115"}
,{":@computed_region_kuhn_3gp2":"27",":@computed_region_q256_3sug":"18235",":@computed_region_ru88_fbhk":"33","address":"4005 27th Ave W","location_1":{"type":"Point","coordinates":[-122.391158,47.655065]},"locid":"1054","name":"Lawton Park","pmaid":"316","x_coord":"-122.391158","y_coord":"47.655065","zip_code":"98199"}
,{":@computed_region_kuhn_3gp2":"17",":@computed_region_q256_3sug":"17919",":@computed_region_ru88_fbhk":"32","address":"201 Lakeside Ave. S","location_1":{"type":"Point","coordinates":[-122.286548,47.600931]},"locid":"1057","name":"Leschi Park","pmaid":"367","x_coord":"-122.286548","y_coord":"47.600931","zip_code":"98122"}
,{":@computed_region_kuhn_3gp2":"17",":@computed_region_q256_3sug":"19578",":@computed_region_ru88_fbhk":"32","address":"3525 E Terrace St","location_1":{"type":"Point","coordinates":[-122.287835,47.604695]},"locid":"1808","name":"Leschi-Lake Dell Natural Area","pmaid":"263","x_coord":"-122.287835","y_coord":"47.604695","zip_code":"98122"}
,{":@computed_region_kuhn_3gp2":"41",":@computed_region_q256_3sug":"17919",":@computed_region_ru88_fbhk":"42","address":"1120 15th Ave S","location_1":{"type":"Point","coordinates":[-122.314435,47.592857]},"locid":"1058","name":"Lewis Park","pmaid":"4076","x_coord":"-122.314435","y_coord":"47.592857","zip_code":"98144"}
,{":@computed_region_kuhn_3gp2":"26",":@computed_region_q256_3sug":"19579",":@computed_region_ru88_fbhk":"46","address":"12th Ave NE & NE 130th St","location_1":{"type":"Point","coordinates":[-122.315433,47.723106]},"locid":"1103","name":"Licorice Fern Natural Area on Thornton Creek","pmaid":"4479","x_coord":"-122.315433","y_coord":"47.723106","zip_code":"98115"}
,{":@computed_region_kuhn_3gp2":"34",":@computed_region_q256_3sug":"18377",":@computed_region_ru88_fbhk":"46","address":"9536 Ashworth Ave N","location_1":{"type":"Point","coordinates":[-122.338735,47.698542]},"locid":"1059","name":"Licton Springs Park","pmaid":"286","x_coord":"-122.338735","y_coord":"47.698542","zip_code":"98103"}
,{":@computed_region_kuhn_3gp2":"51",":@computed_region_q256_3sug":"17916",":@computed_region_ru88_fbhk":"18","address":"8011 Fauntleroy Way SW","location_1":{"type":"Point","coordinates":[-122.396012,47.531176]},"locid":"1060","name":"Lincoln Park","pmaid":"460","x_coord":"-122.396012","y_coord":"47.531176","zip_code":"98136"}
,{":@computed_region_kuhn_3gp2":"25",":@computed_region_q256_3sug":"18377",":@computed_region_ru88_fbhk":"47","address":"Linden Ave N & N 67th St","location_1":{"type":"Point","coordinates":[-122.347727,47.678016]},"locid":"1061","name":"Linden Orchard Park","pmaid":"4419","x_coord":"-122.347727","y_coord":"47.678016","zip_code":"98103"}
,{":@computed_region_2day_rhn5":"119",":@computed_region_cyqu_gs94":"2",":@computed_region_kuhn_3gp2":"26",":@computed_region_q256_3sug":"19579",":@computed_region_ru88_fbhk":"29","address":"14043 32nd Ave NE","location_1":{"type":"Point","coordinates":[-122.294567,47.731387]},"locid":"1064","name":"Little Brook Park","pmaid":"297","x_coord":"-122.294567","y_coord":"47.731387","zip_code":"98125"}
,{":@computed_region_2day_rhn5":"114",":@computed_region_cyqu_gs94":"1",":@computed_region_kuhn_3gp2":"32",":@computed_region_q256_3sug":"18229",":@computed_region_ru88_fbhk":"6","address":"14499 3rd Ave NW","location_1":{"type":"Point","coordinates":[-122.364545,47.733024]},"locid":"1809","name":"Llandover Woods Greenspace","pmaid":"301","x_coord":"-122.364545","y_coord":"47.733024","zip_code":"98177"}
,{":@computed_region_kuhn_3gp2":"14",":@computed_region_q256_3sug":"18385",":@computed_region_ru88_fbhk":"54","address":"Delridge Way SW & SW Graham St","location_1":{"type":"Point","coordinates":[-122.363435,47.530167]},"locid":"2437","name":"Longfellow Creek Greenspace","pmaid":"264","x_coord":"-122.363435","y_coord":"47.530167","zip_code":"98106"}
,{":@computed_region_kuhn_3gp2":"6",":@computed_region_q256_3sug":"18789",":@computed_region_ru88_fbhk":"36","address":"1606 15th Ave E","location_1":{"type":"Point","coordinates":[-122.311628,47.635274]},"locid":"1066","name":"Louisa Boren Park","pmaid":"362","x_coord":"-122.311628","y_coord":"47.635274","zip_code":"98112"}
,{":@computed_region_kuhn_3gp2":"51",":@computed_region_q256_3sug":"17916",":@computed_region_ru88_fbhk":"37","address":"7017 Beach Dr SW","location_1":{"type":"Point","coordinates":[-122.396728,47.540367]},"locid":"1067","name":"Lowman Beach Park","pmaid":"461","x_coord":"-122.396728","y_coord":"47.540367","zip_code":"98136"}
,{":@computed_region_2day_rhn5":"135",":@computed_region_kuhn_3gp2":"23",":@computed_region_q256_3sug":"18798",":@computed_region_ru88_fbhk":"3","address":"2101 NW 77th St","location_1":{"type":"Point","coordinates":[-122.38324,47.684106]},"locid":"1146","name":"Loyal Heights Playfield","pmaid":"289","x_coord":"-122.38324","y_coord":"47.684106","zip_code":"98117"}
,{":@computed_region_kuhn_3gp2":"10",":@computed_region_q256_3sug":"18376",":@computed_region_ru88_fbhk":"17","address":"2291 Fairview Ave E","location_1":{"type":"Point","coordinates":[-122.32975,47.639849]},"locid":"2494","name":"Lynn Street Mini Park","pmaid":"4075","x_coord":"-122.32975","y_coord":"47.639849","zip_code":"98102"}
,{":@computed_region_kuhn_3gp2":"39",":@computed_region_q256_3sug":"18390",":@computed_region_ru88_fbhk":"50","address":"1922 Taylor Ave N","location_1":{"type":"Point","coordinates":[-122.345276,47.636191]},"locid":"1069","name":"MacLean Park","pmaid":"4422","x_coord":"-122.345276","y_coord":"47.636191","zip_code":"98109"}
,{":@computed_region_kuhn_3gp2":"8",":@computed_region_q256_3sug":"18789",":@computed_region_ru88_fbhk":"31","address":"4201 E Madison St","location_1":{"type":"Point","coordinates":[-122.276602,47.635779]},"locid":"1071","name":"Madison Park","pmaid":"369","x_coord":"-122.276602","y_coord":"47.635779","zip_code":"98112"}
,{":@computed_region_kuhn_3gp2":"6",":@computed_region_q256_3sug":"18789",":@computed_region_ru88_fbhk":"31","address":"2300 43rd Ave E","location_1":{"type":"Point","coordinates":[-122.276118,47.639084]},"locid":"2509","name":"Madison Park North Beach","pmaid":"4441","x_coord":"-122.276118","y_coord":"47.639084","zip_code":"98112"}
,{":@computed_region_kuhn_3gp2":"8",":@computed_region_q256_3sug":"19578",":@computed_region_ru88_fbhk":"32","address":"1605 Madrona Dr","location_1":{"type":"Point","coordinates":[-122.284261,47.615231]},"locid":"1471","name":"Madrona Briar Patch","pmaid":"4005","x_coord":"-122.284261","y_coord":"47.615231","zip_code":"98122"}
,{":@computed_region_kuhn_3gp2":"17",":@computed_region_q256_3sug":"19578",":@computed_region_ru88_fbhk":"32","address":"853 Lake Washington Blvd","location_1":{"type":"Point","coordinates":[-122.282679,47.609299]},"locid":"1473","name":"Madrona Park","pmaid":"370","x_coord":"-122.282679","y_coord":"47.609299","zip_code":"98122"}
,{":@computed_region_kuhn_3gp2":"8",":@computed_region_q256_3sug":"19578",":@computed_region_ru88_fbhk":"32","address":"3211 E Spring St","location_1":{"type":"Point","coordinates":[-122.289885,47.611022]},"locid":"1147","name":"Madrona Playground","pmaid":"371","x_coord":"-122.289885","y_coord":"47.611022","zip_code":"98122"}
,{":@computed_region_kuhn_3gp2":"8",":@computed_region_q256_3sug":"19578",":@computed_region_ru88_fbhk":"32","address":"3799 E Spring St","location_1":{"type":"Point","coordinates":[-122.285412,47.611456]},"locid":"1474","name":"Madrona Ravine","pmaid":"2856","x_coord":"-122.285412","y_coord":"47.611456","zip_code":"98122"}
,{":@computed_region_kuhn_3gp2":"27",":@computed_region_q256_3sug":"18235",":@computed_region_ru88_fbhk":"33","address":"W Howe St & Dartmouth Ave W","location_1":{"type":"Point","coordinates":[-122.389073,47.636006]},"locid":"1476","name":"Magnolia Greenbelt","pmaid":"492","x_coord":"-122.389073","y_coord":"47.636006","zip_code":"98199"}
,{":@computed_region_kuhn_3gp2":"27",":@computed_region_q256_3sug":"18235",":@computed_region_ru88_fbhk":"33","address":"3500 28th Ave W","location_1":{"type":"Point","coordinates":[-122.390877,47.651085]},"locid":"1477","name":"Magnolia Manor Park","pmaid":"747","x_coord":"-122.390877","y_coord":"47.651085","zip_code":"98119"}
,{":@computed_region_kuhn_3gp2":"27",":@computed_region_q256_3sug":"18235",":@computed_region_ru88_fbhk":"33","address":"1461 Magnolia Blvd W","location_1":{"type":"Point","coordinates":[-122.398993,47.632366]},"locid":"1478","name":"Magnolia Park","pmaid":"317","x_coord":"-122.398993","y_coord":"47.632366","zip_code":"98199"}
,{":@computed_region_kuhn_3gp2":"27",":@computed_region_q256_3sug":"18235",":@computed_region_ru88_fbhk":"33","address":"2518 34th Ave W","location_1":{"type":"Point","coordinates":[-122.399472,47.643746]},"locid":"2564","name":"Magnolia Playfield","pmaid":"319","x_coord":"-122.399472","y_coord":"47.643746","zip_code":"98199"}
,{":@computed_region_kuhn_3gp2":"27",":@computed_region_q256_3sug":"18235",":@computed_region_ru88_fbhk":"33","address":"W Ruffner to Elliott Bay Marina","location_1":{"type":"Point","coordinates":[-122.391648,47.630922]},"locid":"0","name":"Magnolia Tidelands Park","pmaid":"2970","x_coord":"-122.391648","y_coord":"47.630922","zip_code":"98144"}
,{":@computed_region_kuhn_3gp2":"48",":@computed_region_q256_3sug":"18792",":@computed_region_ru88_fbhk":"55","address":"7400 Sand Point Way NE","location_1":{"type":"Point","coordinates":[-122.255084,47.680304]},"locid":"0","name":"Magnuson Park","pmaid":"111110","x_coord":"-122.255084","y_coord":"47.680304","zip_code":"98115"}
,{":@computed_region_kuhn_3gp2":"28",":@computed_region_q256_3sug":"19579",":@computed_region_ru88_fbhk":"46","address":"529 NE 103rd St","location_1":{"type":"Point","coordinates":[-122.322269,47.70326]},"locid":"1522","name":"Maple Leaf Community Garden","pmaid":"4434","x_coord":"-122.322269","y_coord":"47.70326","zip_code":"98125"}
,{":@computed_region_kuhn_3gp2":"28",":@computed_region_q256_3sug":"18792",":@computed_region_ru88_fbhk":"53","address":"1020 NE 82nd St","location_1":{"type":"Point","coordinates":[-122.315613,47.689015]},"locid":"1105","name":"Maple Leaf Resevoir Park","pmaid":"3881","x_coord":"-122.315613","y_coord":"47.689015","zip_code":"98115"}
,{":@computed_region_kuhn_3gp2":"44",":@computed_region_q256_3sug":"18388",":@computed_region_ru88_fbhk":"34","address":"1950 S Graham St","location_1":{"type":"Point","coordinates":[-122.308342,47.551071]},"locid":"1523","name":"Maple School Ravine","pmaid":"1630","x_coord":"-122.308342","y_coord":"47.551071","zip_code":"98108"}
,{":@computed_region_kuhn_3gp2":"41",":@computed_region_q256_3sug":"18388",":@computed_region_ru88_fbhk":"34","address":"4801 Corson Ave S","location_1":{"type":"Point","coordinates":[-122.318845,47.560041]},"locid":"1106","name":"Maple Wood Playfield","pmaid":"418","x_coord":"-122.318845","y_coord":"47.560041","zip_code":"98108"}
,{":@computed_region_kuhn_3gp2":"15",":@computed_region_q256_3sug":"18388",":@computed_region_ru88_fbhk":"59","address":"9026 4th Ave S","location_1":{"type":"Point","coordinates":[-122.329372,47.522124]},"locid":"1524","name":"Marra-Desimone Park","pmaid":"4447","x_coord":"-122.329372","y_coord":"47.522124","zip_code":"98108"}
,{":@computed_region_kuhn_3gp2":"39",":@computed_region_q256_3sug":"19575",":@computed_region_ru88_fbhk":"50","address":"1191 7th Ave W","location_1":{"type":"Point","coordinates":[-122.366805,47.629436]},"locid":"1525","name":"Marshall Park","pmaid":"320","x_coord":"-122.366805","y_coord":"47.629436","zip_code":"98119"}
,{":@computed_region_kuhn_3gp2":"43",":@computed_region_q256_3sug":"18800",":@computed_region_ru88_fbhk":"30","address":"6612 57th Ave S","location_1":{"type":"Point","coordinates":[-122.260054,47.542398]},"locid":"1527","name":"Martha Washington Park","pmaid":"432","x_coord":"-122.260054","y_coord":"47.542398","zip_code":"98115"}
,{":@computed_region_kuhn_3gp2":"42",":@computed_region_q256_3sug":"17919",":@computed_region_ru88_fbhk":"38","address":"2200 Martin Luther King Jr  Way S","location_1":{"type":"Point","coordinates":[-122.297165,47.582756]},"locid":"2615","name":"Martin Luther King, Jr. Memorial","pmaid":"3923","x_coord":"-122.297165","y_coord":"47.582756","zip_code":"98144"}
,{":@computed_region_kuhn_3gp2":"1",":@computed_region_q256_3sug":"18386",":@computed_region_ru88_fbhk":"4","address":"5400 Ballard Ave NW","location_1":{"type":"Point","coordinates":[-122.384972,47.667976]},"locid":"1880","name":"Marvin's Garden","pmaid":"298","x_coord":"-122.384972","y_coord":"47.667976","zip_code":"98107"}
,{":@computed_region_kuhn_3gp2":"48",":@computed_region_q256_3sug":"18792",":@computed_region_ru88_fbhk":"55","address":"5100 NE 93rd St","location_1":{"type":"Point","coordinates":[-122.271785,47.694564]},"locid":"1529","name":"Matthews Beach Park","pmaid":"347","x_coord":"-122.271785","y_coord":"47.694564","zip_code":"98115"}
,{":@computed_region_kuhn_3gp2":"39",":@computed_region_q256_3sug":"18390",":@computed_region_ru88_fbhk":"50","address":"2600 2nd Ave N","location_1":{"type":"Point","coordinates":[-122.353356,47.643241]},"locid":"1530","name":"Mayfair Park","pmaid":"321","x_coord":"-122.353356","y_coord":"47.643241","zip_code":"98109"}
,{":@computed_region_kuhn_3gp2":"41",":@computed_region_q256_3sug":"17919",":@computed_region_ru88_fbhk":"42","address":"S McClellan St & Beacon Ave S","location_1":{"type":"Point","coordinates":[-122.311648,47.578695]},"locid":"0","name":"McClellan Place","pmaid":"3918","x_coord":"-122.311648","y_coord":"47.578695","zip_code":"98144"}
,{":@computed_region_kuhn_3gp2":"8",":@computed_region_q256_3sug":"18789",":@computed_region_ru88_fbhk":"31","address":"1099 McGilvra Blvd E","location_1":{"type":"Point","coordinates":[-122.282116,47.626925]},"locid":"2395","name":"McGilvra Boulevard","pmaid":"4013","x_coord":"-122.282116","y_coord":"47.626925","zip_code":"98112"}
,{":@computed_region_kuhn_3gp2":"4",":@computed_region_q256_3sug":"19578",":@computed_region_ru88_fbhk":"8","address":"1425 E Madison St","location_1":{"type":"Point","coordinates":[-122.313032,47.614233]},"locid":"1535","name":"McGilvra Place","pmaid":"4008","x_coord":"-122.313032","y_coord":"47.614233","zip_code":"98122"}
,{":@computed_region_kuhn_3gp2":"31",":@computed_region_q256_3sug":"18081",":@computed_region_ru88_fbhk":"56","address":"Westlake Ave N & Stewart St","location_1":{"type":"Point","coordinates":[-122.337587,47.61299]},"locid":"1536","name":"McGraw Square","pmaid":"339","x_coord":"-122.337587","y_coord":"47.61299","zip_code":"98101"}
,{":@computed_region_kuhn_3gp2":"29",":@computed_region_q256_3sug":"19579",":@computed_region_ru88_fbhk":"29","address":"10533 35th Ave NE","location_1":{"type":"Point","coordinates":[-122.293493,47.705771]},"locid":"1107","name":"Meadowbrook Playfield","pmaid":"352","x_coord":"-122.293493","y_coord":"47.705771","zip_code":"98125"}
,{":@computed_region_kuhn_3gp2":"50",":@computed_region_q256_3sug":"18795",":@computed_region_ru88_fbhk":"2","address":"4100 Aikins Ave SW","location_1":{"type":"Point","coordinates":[-122.403424,47.563782]},"locid":"2590","name":"Me-Kwa-Mooks Natural Area","pmaid":"268","x_coord":"-122.403424","y_coord":"47.563782","zip_code":"98116"}
,{":@computed_region_kuhn_3gp2":"50",":@computed_region_q256_3sug":"18795",":@computed_region_ru88_fbhk":"2","address":"4503 Beach Dr SW","location_1":{"type":"Point","coordinates":[-122.404006,47.563167]},"locid":"1539","name":"Me-Kwa-Mooks Park","pmaid":"473","x_coord":"-122.404006","y_coord":"47.563167","zip_code":"98116"}
,{":@computed_region_kuhn_3gp2":"3",":@computed_region_q256_3sug":"18377",":@computed_region_ru88_fbhk":"61","address":"4649 Sunnyside Ave N","location_1":{"type":"Point","coordinates":[-122.332557,47.664159]},"locid":"1149","name":"Meridian Playground","pmaid":"1104","x_coord":"-122.332557","y_coord":"47.664159","zip_code":"98103"}
,{":@computed_region_kuhn_3gp2":"6",":@computed_region_q256_3sug":"18789",":@computed_region_ru88_fbhk":"35","address":"330 19th Ave E","location_1":{"type":"Point","coordinates":[-122.306261,47.621433]},"locid":"1150","name":"Miller Playfield","pmaid":"373","x_coord":"-122.306261","y_coord":"47.621433","zip_code":"98112"}
,{":@computed_region_kuhn_3gp2":"6",":@computed_region_q256_3sug":"18789",":@computed_region_ru88_fbhk":"35","address":"222 20th Ave E","location_1":{"type":"Point","coordinates":[-122.305711,47.620311]},"locid":"1541","name":"Miller Triangle","pmaid":"4015","x_coord":"-122.305711","y_coord":"47.620311","zip_code":"98112"}
,{":@computed_region_2day_rhn5":"134",":@computed_region_cyqu_gs94":"1",":@computed_region_kuhn_3gp2":"34",":@computed_region_q256_3sug":"19582",":@computed_region_ru88_fbhk":"46","address":"1500 N 105th St","location_1":{"type":"Point","coordinates":[-122.336528,47.705755]},"locid":"1542","name":"Mineral Springs Park","pmaid":"291","x_coord":"-122.336528","y_coord":"47.705755","zip_code":"98133"}
,{":@computed_region_kuhn_3gp2":"29",":@computed_region_q256_3sug":"18792",":@computed_region_ru88_fbhk":"55","address":"9612 35th Ave NE","location_1":{"type":"Point","coordinates":[-122.28962,47.699037]},"locid":"1543","name":"Mock Creek Ravine","pmaid":"277","x_coord":"-122.28962","y_coord":"47.699037","zip_code":"98115"}
,{":@computed_region_kuhn_3gp2":"6",":@computed_region_q256_3sug":"18789",":@computed_region_ru88_fbhk":"36","address":"2811 Montlake Blvd E","location_1":{"type":"Point","coordinates":[-122.30474,47.645971]},"locid":"2536","name":"Montlake Boulevard","pmaid":"4021","x_coord":"-122.30474","y_coord":"47.645971","zip_code":"98112"}
,{":@computed_region_kuhn_3gp2":"6",":@computed_region_q256_3sug":"18789",":@computed_region_ru88_fbhk":"36","address":"1618 E Calhoun St","location_1":{"type":"Point","coordinates":[-122.310081,47.642407]},"locid":"2536","name":"Montlake Playfield","pmaid":"376","x_coord":"-122.310081","y_coord":"47.642407","zip_code":"98112"}
,{":@computed_region_kuhn_3gp2":"51",":@computed_region_q256_3sug":"17916",":@computed_region_ru88_fbhk":"37","address":"6413 California Ave SW","location_1":{"type":"Point","coordinates":[-122.387528,47.545507]},"locid":"1545","name":"Morgan Junction","pmaid":"4460","x_coord":"-122.387528","y_coord":"47.545507","zip_code":"98136"}
,{":@computed_region_kuhn_3gp2":"42",":@computed_region_q256_3sug":"17919",":@computed_region_ru88_fbhk":"38","address":"2521 Lake Park Dr S","location_1":{"type":"Point","coordinates":[-122.288481,47.580957]},"locid":"2537","name":"Mt. Baker Park","pmaid":"419","x_coord":"-122.288481","y_coord":"47.580957","zip_code":"98144"}
,{":@computed_region_kuhn_3gp2":"42",":@computed_region_q256_3sug":"17919",":@computed_region_ru88_fbhk":"38","address":"1403 31st Ave S","location_1":{"type":"Point","coordinates":[-122.292616,47.589983]},"locid":"2399","name":"Mt. Baker Ridge Viewpoint","pmaid":"4427","x_coord":"-122.292616","y_coord":"47.589983","zip_code":"98144"}
,{":@computed_region_kuhn_3gp2":"42",":@computed_region_q256_3sug":"17919",":@computed_region_ru88_fbhk":"38","address":"2523 Mount Claire Dr S","location_1":{"type":"Point","coordinates":[-122.28642,47.580737]},"locid":"2595","name":"Mt. Claire Park","pmaid":"4019","x_coord":"-122.28642","y_coord":"47.580737","zip_code":"98144"}
,{":@computed_region_kuhn_3gp2":"40",":@computed_region_q256_3sug":"19575",":@computed_region_ru88_fbhk":"50","address":"3130 Alaskan Way","location_1":{"type":"Point","coordinates":[-122.36087,47.618767]},"locid":"1547","name":"Myrtle Edwards Park","pmaid":"311","x_coord":"-122.36087","y_coord":"47.618767","zip_code":"98121"}
,{":@computed_region_kuhn_3gp2":"51",":@computed_region_q256_3sug":"19581",":@computed_region_ru88_fbhk":"37","address":"35th Ave SW & SW Myrtle St","location_1":{"type":"Point","coordinates":[-122.376716,47.539206]},"locid":"1548","name":"Myrtle Reservoir","pmaid":"4463","x_coord":"-122.376716","y_coord":"47.539206","zip_code":"98126"}
,{":@computed_region_kuhn_3gp2":"49",":@computed_region_q256_3sug":"18795",":@computed_region_ru88_fbhk":"41","address":"5062 SW Admiral Way","location_1":{"type":"Point","coordinates":[-122.397063,47.579565]},"locid":"1551","name":"Nantes Park","pmaid":"3916","x_coord":"-122.397063","y_coord":"47.579565","zip_code":"98116"}
,{":@computed_region_kuhn_3gp2":"29",":@computed_region_q256_3sug":"19579",":@computed_region_ru88_fbhk":"29","address":"10750 30th Ave NE","location_1":{"type":"Point","coordinates":[-122.292028,47.707715]},"locid":"1155","name":"Nathan Hale Playfield","pmaid":"4023","x_coord":"-122.292028","y_coord":"47.707715","zip_code":"98125"}
,{":@computed_region_kuhn_3gp2":"3",":@computed_region_q256_3sug":"18383",":@computed_region_ru88_fbhk":"61","address":"551 NE 60th St","location_1":{"type":"Point","coordinates":[-122.322634,47.671728]},"locid":"2596","name":"NE 60th Street Park","pmaid":"3975","x_coord":"-122.322634","y_coord":"47.671728","zip_code":"98115"}
,{":@computed_region_kuhn_3gp2":"17",":@computed_region_q256_3sug":"19578",":@computed_region_ru88_fbhk":"9","address":"720 29th Ave","location_1":{"type":"Point","coordinates":[-122.294573,47.608732]},"locid":"1557","name":"Nora's Woods","pmaid":"4403","x_coord":"-122.294573","y_coord":"47.608732","zip_code":"98122"}
,{":@computed_region_2day_rhn5":"131",":@computed_region_kuhn_3gp2":"21",":@computed_region_q256_3sug":"18798",":@computed_region_ru88_fbhk":"3","address":"8999 24th Ave NW","location_1":{"type":"Point","coordinates":[-122.390258,47.69471]},"locid":"247","name":"North Beach Park","pmaid":"247","x_coord":"-122.390258","y_coord":"47.69471","zip_code":"98117"}
,{":@computed_region_kuhn_3gp2":"38",":@computed_region_q256_3sug":"18383",":@computed_region_ru88_fbhk":"60","address":"600 NE Northlake Way","location_1":{"type":"Point","coordinates":[-122.322428,47.653963]},"locid":"2487","name":"North Passage Point Park","pmaid":"2956","x_coord":"-122.322428","y_coord":"47.653963","zip_code":"98105"}
,{":@computed_region_2day_rhn5":"122",":@computed_region_cyqu_gs94":"1",":@computed_region_kuhn_3gp2":"33",":@computed_region_q256_3sug":"19579",":@computed_region_ru88_fbhk":"46","address":"12718 1st Ave NE","location_1":{"type":"Point","coordinates":[-122.326124,47.721775]},"locid":"361","name":"Northacres Park","pmaid":"361","x_coord":"-122.326124","y_coord":"47.721775","zip_code":"98125"}
,{":@computed_region_kuhn_3gp2":"39",":@computed_region_q256_3sug":"18390",":@computed_region_ru88_fbhk":"50","address":"Dexter Way N & Lynn St & Wheeler","location_1":{"type":"Point","coordinates":[-122.345011,47.635866]},"locid":"2618","name":"Northeast Queen Anne Greenbelt","pmaid":"279","x_coord":"-122.345011","y_coord":"47.635866","zip_code":"98109"}
,{":@computed_region_kuhn_3gp2":"28",":@computed_region_q256_3sug":"19579",":@computed_region_ru88_fbhk":"46","address":"10510 5th Ave NE","location_1":{"type":"Point","coordinates":[-122.322424,47.705194]},"locid":"1562","name":"Northgate Park","pmaid":"4445","x_coord":"-122.322424","y_coord":"47.705194","zip_code":"98125"}
,{":@computed_region_kuhn_3gp2":"38",":@computed_region_q256_3sug":"18383",":@computed_region_ru88_fbhk":"60","address":"699 NE Northlake Way","location_1":{"type":"Point","coordinates":[-122.320826,47.654365]},"locid":"1563","name":"Northlake Park","pmaid":"4452","x_coord":"-122.320826","y_coord":"47.654365","zip_code":"98105"}
,{":@computed_region_kuhn_3gp2":"1",":@computed_region_q256_3sug":"18386",":@computed_region_ru88_fbhk":"4","address":"6001 Seaview Ave NW","location_1":{"type":"Point","coordinates":[-122.40656,47.672184]},"locid":"2599","name":"Northwest 60th St. Viewpoint","pmaid":"4161","x_coord":"-122.40656","y_coord":"47.672184","zip_code":"98107"}
,{":@computed_region_kuhn_3gp2":"39",":@computed_region_q256_3sug":"18390",":@computed_region_ru88_fbhk":"50","address":"1405 Warren Ave N","location_1":{"type":"Point","coordinates":[-122.355134,47.631342]},"locid":"1926","name":"Observatory Courts","pmaid":"322","x_coord":"-122.355134","y_coord":"47.631342","zip_code":"98109"}
,{":@computed_region_kuhn_3gp2":"20",":@computed_region_q256_3sug":"18379",":@computed_region_ru88_fbhk":"49","address":"117 S Washington St","location_1":{"type":"Point","coordinates":[-122.333272,47.600463]},"locid":"1927","name":"Occidental Square","pmaid":"323","x_coord":"-122.333272","y_coord":"47.600463","zip_code":"98104"}
,{":@computed_region_kuhn_3gp2":"9",":@computed_region_q256_3sug":"19576",":@computed_region_ru88_fbhk":"5","address":"2901 Western Ave","location_1":{"type":"Point","coordinates":[-122.35418,47.616577]},"locid":"1929","name":"Olympic Sculpture Park","pmaid":"4414","x_coord":"-122.35418","y_coord":"47.616577","zip_code":"98121"}
,{":@computed_region_kuhn_3gp2":"27",":@computed_region_q256_3sug":"19575",":@computed_region_ru88_fbhk":"33","address":"2351 W Marina Pl","location_1":{"type":"Point","coordinates":[-122.386693,47.629555]},"locid":"1930","name":"Open Water Park","pmaid":"3005","x_coord":"-122.386693","y_coord":"47.629555","zip_code":"98199"}
,{":@computed_region_kuhn_3gp2":"51",":@computed_region_q256_3sug":"19581",":@computed_region_ru88_fbhk":"37","address":"39th Ave SW & SW Orchard St","location_1":{"type":"Point","coordinates":[-122.380151,47.538315]},"locid":"2403","name":"Orchard Street Ravine","pmaid":"300","x_coord":"-122.380151","y_coord":"47.538315","zip_code":"98136"}
,{":@computed_region_kuhn_3gp2":"45",":@computed_region_q256_3sug":"18800",":@computed_region_ru88_fbhk":"7","address":"4351 S Othello St","location_1":{"type":"Point","coordinates":[-122.278105,47.536214]},"locid":"1933","name":"Othello Playground","pmaid":"403","x_coord":"-122.278105","y_coord":"47.536214","zip_code":"98118"}
,{":@computed_region_kuhn_3gp2":"37",":@computed_region_q256_3sug":"18388",":@computed_region_ru88_fbhk":"22","address":"6430 Corson Ave S","location_1":{"type":"Point","coordinates":[-122.321583,47.54499]},"locid":"1934","name":"Oxbow Park","pmaid":"4416","x_coord":"-122.321583","y_coord":"47.54499","zip_code":"98108"}
,{":@computed_region_kuhn_3gp2":"47",":@computed_region_q256_3sug":"18383",":@computed_region_ru88_fbhk":"60","address":"5622 Park Rd NE","location_1":{"type":"Point","coordinates":[-122.305464,47.67005]},"locid":"1937","name":"Park Home Circle","pmaid":"4027","x_coord":"-122.305464","y_coord":"47.67005","zip_code":"98105"}
,{":@computed_region_kuhn_3gp2":"27",":@computed_region_q256_3sug":"18235",":@computed_region_ru88_fbhk":"33","address":"2401 West Viewmont Way W","location_1":{"type":"Point","coordinates":[-122.410083,47.640142]},"locid":"1938","name":"Parkmont Place","pmaid":"4009","x_coord":"-122.410083","y_coord":"47.640142","zip_code":"98199"}
,{":@computed_region_kuhn_3gp2":"39",":@computed_region_q256_3sug":"19575",":@computed_region_ru88_fbhk":"50","address":"650 W Highland Dr","location_1":{"type":"Point","coordinates":[-122.366082,47.629868]},"locid":"2415","name":"Parsons Gardens","pmaid":"324","x_coord":"-122.366082","y_coord":"47.629868","zip_code":"98119"}
,{":@computed_region_kuhn_3gp2":"3",":@computed_region_q256_3sug":"18383",":@computed_region_ru88_fbhk":"61","address":"NE 40th St & NE Pacific St, Seattle","location_1":{"type":"Point","coordinates":[-122.323616,47.65543]},"locid":"1940","name":"Peace Park","pmaid":"4029","x_coord":"-122.323616","y_coord":"47.65543","zip_code":"98105"}
,{":@computed_region_kuhn_3gp2":"51",":@computed_region_q256_3sug":"17916",":@computed_region_ru88_fbhk":"37","address":"6762 Murray Ave SW","location_1":{"type":"Point","coordinates":[-122.39309,47.541492]},"locid":"1810","name":"Pelly Place Natural Area","pmaid":"237","x_coord":"-122.39309","y_coord":"47.541492","zip_code":"98136"}
,{":@computed_region_kuhn_3gp2":"17",":@computed_region_q256_3sug":"19578",":@computed_region_ru88_fbhk":"32","address":"3233 E Spruce St","location_1":{"type":"Point","coordinates":[-122.290602,47.602723]},"locid":"2239","name":"Peppi's Playground","pmaid":"378","x_coord":"-122.290602","y_coord":"47.602723","zip_code":"98122"}
,{":@computed_region_kuhn_3gp2":"30",":@computed_region_q256_3sug":"18081",":@computed_region_ru88_fbhk":"14","address":"1951 Alaskan Way","location_1":{"type":"Point","coordinates":[-122.345237,47.608656]},"locid":"1943","name":"Piers 62 and 63","pmaid":"274","x_coord":"-122.345237","y_coord":"47.608656","zip_code":"98101"}
,{":@computed_region_kuhn_3gp2":"13",":@computed_region_q256_3sug":"18385",":@computed_region_ru88_fbhk":"48","address":"4418 21st Ave SW","location_1":{"type":"Point","coordinates":[-122.356966,47.563271]},"locid":"1945","name":"Pigeon Point Park","pmaid":"282","x_coord":"-122.356966","y_coord":"47.563271","zip_code":"98106"}
,{":@computed_region_2day_rhn5":"122",":@computed_region_cyqu_gs94":"1",":@computed_region_kuhn_3gp2":"26",":@computed_region_q256_3sug":"19579",":@computed_region_ru88_fbhk":"46","address":"12029 14th Ave NE","location_1":{"type":"Point","coordinates":[-122.314628,47.716436]},"locid":"1157","name":"Pinehurst Playground","pmaid":"382","x_coord":"-122.314628","y_coord":"47.716436","zip_code":"98125"}
,{":@computed_region_kuhn_3gp2":"26",":@computed_region_q256_3sug":"19579",":@computed_region_ru88_fbhk":"29","address":"11700 19th Ave NE","location_1":{"type":"Point","coordinates":[-122.308222,47.714186]},"locid":"1947","name":"Pinehurst Pocket Park","pmaid":"4444","x_coord":"-122.308222","y_coord":"47.714186","zip_code":"98125"}
,{":@computed_region_kuhn_3gp2":"19",":@computed_region_q256_3sug":"18379",":@computed_region_ru88_fbhk":"14","address":"100 Yesler Way","location_1":{"type":"Point","coordinates":[-122.333886,47.602076]},"locid":"1949","name":"Pioneer Square","pmaid":"325","x_coord":"-122.333886","y_coord":"47.602076","zip_code":"98104"}
,{":@computed_region_2day_rhn5":"125",":@computed_region_cyqu_gs94":"1",":@computed_region_kuhn_3gp2":"32",":@computed_region_q256_3sug":"18229",":@computed_region_ru88_fbhk":"6","address":"600 NW 117th St","location_1":{"type":"Point","coordinates":[-122.364699,47.714678]},"locid":"2242","name":"Pipers Creek Natural Area","pmaid":"275","x_coord":"-122.364699","y_coord":"47.714678","zip_code":"98133"}
,{":@computed_region_kuhn_3gp2":"8",":@computed_region_q256_3sug":"19578",":@computed_region_ru88_fbhk":"9","address":"1717 26th Ave","location_1":{"type":"Point","coordinates":[-122.299142,47.617053]},"locid":"1951","name":"Plum Tree Park","pmaid":"387","x_coord":"-122.299142","y_coord":"47.617053","zip_code":"98122"}
,{":@computed_region_kuhn_3gp2":"12",":@computed_region_q256_3sug":"18081",":@computed_region_ru88_fbhk":"19","address":"1050 Pike St","location_1":{"type":"Point","coordinates":[-122.329092,47.614124]},"locid":"1952","name":"Plymouth Pillars Park","pmaid":"4000","x_coord":"-122.329092","y_coord":"47.614124","zip_code":"98101"}
,{":@computed_region_kuhn_3gp2":"17",":@computed_region_q256_3sug":"19578",":@computed_region_ru88_fbhk":"9","address":"352 Martin Luther King Jr Way","location_1":{"type":"Point","coordinates":[-122.295998,47.605197]},"locid":"1953","name":"Powell Barnett Park","pmaid":"345","x_coord":"-122.295998","y_coord":"47.605197","zip_code":"98112"}
,{":@computed_region_kuhn_3gp2":"17",":@computed_region_q256_3sug":"19578",":@computed_region_ru88_fbhk":"28","address":"1800 S Main St","location_1":{"type":"Point","coordinates":[-122.307257,47.601407]},"locid":"2404","name":"Pratt Park","pmaid":"390","x_coord":"-122.307257","y_coord":"47.601407","zip_code":"98144"}
,{":@computed_region_kuhn_3gp2":"20",":@computed_region_q256_3sug":"18379",":@computed_region_ru88_fbhk":"14","address":"425 3rd Ave","location_1":{"type":"Point","coordinates":[-122.330883,47.601844]},"locid":"1956","name":"Prefontaine Place","pmaid":"326","x_coord":"-122.330883","y_coord":"47.601844","zip_code":"98104"}
,{":@computed_region_kuhn_3gp2":"6",":@computed_region_q256_3sug":"18789",":@computed_region_ru88_fbhk":"9","address":"401 24th Ave E","location_1":{"type":"Point","coordinates":[-122.301614,47.622895]},"locid":"2438","name":"Prentis I. Frazier Park","pmaid":"357","x_coord":"-122.301614","y_coord":"47.622895","zip_code":"98112"}
,{":@computed_region_kuhn_3gp2":"45",":@computed_region_q256_3sug":"18800",":@computed_region_ru88_fbhk":"51","address":"8400 55th Ave S","location_1":{"type":"Point","coordinates":[-122.26283,47.528948]},"locid":"1957","name":"Pritchard Island Beach","pmaid":"420","x_coord":"-122.26283","y_coord":"47.528948","zip_code":"98118"}
,{":@computed_region_kuhn_3gp2":"13",":@computed_region_q256_3sug":"18385",":@computed_region_ru88_fbhk":"45","address":"5200 26th Ave SW","location_1":{"type":"Point","coordinates":[-122.365575,47.555356]},"locid":"2405","name":"Puget Boulevard Commons","pmaid":"4158","x_coord":"-122.365575","y_coord":"47.555356","zip_code":"98106"}
,{":@computed_region_kuhn_3gp2":"13",":@computed_region_q256_3sug":"18385",":@computed_region_ru88_fbhk":"45","address":"1901 SW Brandon St","location_1":{"type":"Point","coordinates":[-122.358556,47.55187]},"locid":"2247","name":"Puget Creek Greenspace","pmaid":"3993","x_coord":"-122.358556","y_coord":"47.55187","zip_code":"98106"}
,{":@computed_region_kuhn_3gp2":"13",":@computed_region_q256_3sug":"18385",":@computed_region_ru88_fbhk":"45","address":"4767 Puget Way SW","location_1":{"type":"Point","coordinates":[-122.356922,47.558473]},"locid":"1961","name":"Puget Park","pmaid":"462","x_coord":"-122.356922","y_coord":"47.558473","zip_code":"98106"}
,{":@computed_region_kuhn_3gp2":"13",":@computed_region_q256_3sug":"18385",":@computed_region_ru88_fbhk":"45","address":"6029 21st Ave SW","location_1":{"type":"Point","coordinates":[-122.359947,47.547368]},"locid":"1039","name":"Puget Ridge Playground","pmaid":"4201","x_coord":"-122.359947","y_coord":"47.547368","zip_code":"98106"}
,{":@computed_region_kuhn_3gp2":"39",":@computed_region_q256_3sug":"19575",":@computed_region_ru88_fbhk":"50","address":"2806 3rd Ave W","location_1":{"type":"Point","coordinates":[-122.359711,47.645599]},"locid":"1040","name":"Queen Anne Bowl Playfield","pmaid":"3984","x_coord":"-122.359711","y_coord":"47.645599","zip_code":"98119"}
,{":@computed_region_kuhn_3gp2":"28",":@computed_region_q256_3sug":"18792",":@computed_region_ru88_fbhk":"53","address":"631 NE Banner Pl","location_1":{"type":"Point","coordinates":[-122.320476,47.682713]},"locid":"1565","name":"Rainbow Point","pmaid":"4045","x_coord":"-122.320476","y_coord":"47.682713","zip_code":"98115"}
,{":@computed_region_kuhn_3gp2":"45",":@computed_region_q256_3sug":"18800",":@computed_region_ru88_fbhk":"51","address":"8802 Rainier Ave S","location_1":{"type":"Point","coordinates":[-122.273136,47.525041]},"locid":"1160","name":"Rainier Beach Playfield","pmaid":"422","x_coord":"-122.273136","y_coord":"47.525041","zip_code":"98118"}
,{":@computed_region_kuhn_3gp2":"2",":@computed_region_q256_3sug":"18386",":@computed_region_ru88_fbhk":"47","address":"230 NW 53rd St","location_1":{"type":"Point","coordinates":[-122.359434,47.667567]},"locid":"1568","name":"Rainier Place","pmaid":"3999","x_coord":"-122.359434","y_coord":"47.667567","zip_code":"98107"}
,{":@computed_region_kuhn_3gp2":"43",":@computed_region_q256_3sug":"18800",":@computed_region_ru88_fbhk":"21","address":"3700 S Alaska St","location_1":{"type":"Point","coordinates":[-122.2862,47.561817]},"locid":"1162","name":"Rainier Playfield","pmaid":"423","x_coord":"-122.2862","y_coord":"47.561817","zip_code":"98118"}
,{":@computed_region_kuhn_3gp2":"47",":@computed_region_q256_3sug":"18792",":@computed_region_ru88_fbhk":"53","address":"5520 Ravenna Ave NE","location_1":{"type":"Point","coordinates":[-122.305705,47.671404]},"locid":"1570","name":"Ravenna Park","pmaid":"391","x_coord":"-122.305705","y_coord":"47.671404","zip_code":"98105"}
,{":@computed_region_kuhn_3gp2":"47",":@computed_region_q256_3sug":"18792",":@computed_region_ru88_fbhk":"53","address":"Ravenna Ave NE & NE 54th St","location_1":{"type":"Point","coordinates":[-122.30367,47.668089]},"locid":"1572","name":"Ravenna Park Triangle","pmaid":"4080","x_coord":"-122.30367","y_coord":"47.668089","zip_code":"98105"}
,{":@computed_region_kuhn_3gp2":"47",":@computed_region_q256_3sug":"18792",":@computed_region_ru88_fbhk":"53","address":"6215 24th Ave NE","location_1":{"type":"Point","coordinates":[-122.301707,47.674823]},"locid":"1571","name":"Ravenna Ravine","pmaid":"254","x_coord":"-122.301707","y_coord":"47.674823","zip_code":"98115"}
,{":@computed_region_kuhn_3gp2":"47",":@computed_region_q256_3sug":"18383",":@computed_region_ru88_fbhk":"60","address":"4633 Ravenna Ave NE","location_1":{"type":"Point","coordinates":[-122.303161,47.662559]},"locid":"1574","name":"Ravenna Woods","pmaid":"4411","x_coord":"-122.303161","y_coord":"47.662559","zip_code":"98105"}
,{":@computed_region_kuhn_3gp2":"47",":@computed_region_q256_3sug":"18792",":@computed_region_ru88_fbhk":"53","address":"6535 Ravenna Ave NE","location_1":{"type":"Point","coordinates":[-122.304964,47.676873]},"locid":"1576","name":"Ravenna-Eckstein Park","pmaid":"488","x_coord":"-122.304964","y_coord":"47.676873","zip_code":"98115"}
,{":@computed_region_kuhn_3gp2":"9",":@computed_region_q256_3sug":"19576",":@computed_region_ru88_fbhk":"5","address":"2251 3rd Ave","location_1":{"type":"Point","coordinates":[-122.344776,47.614346]},"locid":"1588","name":"Regrade Park","pmaid":"336","x_coord":"-122.344776","y_coord":"47.614346","zip_code":"98121"}
,{":@computed_region_kuhn_3gp2":"13",":@computed_region_q256_3sug":"18385",":@computed_region_ru88_fbhk":"45","address":"7226 12th Ave SW","location_1":{"type":"Point","coordinates":[-122.348688,47.54101]},"locid":"2269","name":"Riverview Playfield","pmaid":"463","x_coord":"-122.348688","y_coord":"47.54101","zip_code":"98106"}
,{":@computed_region_kuhn_3gp2":"4",":@computed_region_q256_3sug":"18376",":@computed_region_ru88_fbhk":"36","address":"950 E Roanoke St","location_1":{"type":"Point","coordinates":[-122.320185,47.643723]},"locid":"1591","name":"Roanoke Park","pmaid":"379","x_coord":"-122.320185","y_coord":"47.643723","zip_code":"98102"}
,{":@computed_region_kuhn_3gp2":"10",":@computed_region_q256_3sug":"18376",":@computed_region_ru88_fbhk":"17","address":"1 E Roanoke St","location_1":{"type":"Point","coordinates":[-122.329327,47.643193]},"locid":"0","name":"Roanoke St. Mini Park","pmaid":"9064","x_coord":"-122.329327","y_coord":"47.643193","zip_code":"98102"}
,{":@computed_region_kuhn_3gp2":"10",":@computed_region_q256_3sug":"18376",":@computed_region_ru88_fbhk":"17","address":"2516 Eastlake Ave E","location_1":{"type":"Point","coordinates":[-122.325257,47.642601]},"locid":"1165","name":"Rogers Playground","pmaid":"380","x_coord":"-122.325257","y_coord":"47.642601","zip_code":"98102"}
,{":@computed_region_kuhn_3gp2":"2",":@computed_region_q256_3sug":"18386",":@computed_region_ru88_fbhk":"20","address":"4320 4th Ave NW","location_1":{"type":"Point","coordinates":[-122.361347,47.659718]},"locid":"1812","name":"Ross Playground","pmaid":"248","x_coord":"-122.361347","y_coord":"47.659718","zip_code":"98107"}
,{":@computed_region_kuhn_3gp2":"50",":@computed_region_q256_3sug":"18385",":@computed_region_ru88_fbhk":"45","address":"4622 35th Ave SW","location_1":{"type":"Point","coordinates":[-122.375859,47.560222]},"locid":"1594","name":"Rotary Viewpoint","pmaid":"4465","x_coord":"-122.375859","y_coord":"47.560222","zip_code":"98126"}
,{":@computed_region_kuhn_3gp2":"14",":@computed_region_q256_3sug":"19581",":@computed_region_ru88_fbhk":"54","address":"2850 SW Roxbury St","location_1":{"type":"Point","coordinates":[-122.368881,47.519496]},"locid":"1595","name":"Roxhill Park","pmaid":"464","x_coord":"-122.368881","y_coord":"47.519496","zip_code":"98126"}
,{":@computed_region_kuhn_3gp2":"28",":@computed_region_q256_3sug":"18792",":@computed_region_ru88_fbhk":"46","address":"1726 NE 94th St","location_1":{"type":"Point","coordinates":[-122.308132,47.697132]},"locid":"1168","name":"Sacajawea Playground","pmaid":"394","x_coord":"-122.308132","y_coord":"47.697132","zip_code":"98115"}
,{":@computed_region_kuhn_3gp2":"23",":@computed_region_q256_3sug":"18798",":@computed_region_ru88_fbhk":"3","address":"2001 NW Canoe Pl","location_1":{"type":"Point","coordinates":[-122.381343,47.679297]},"locid":"1599","name":"Salmon Bay Park","pmaid":"249","x_coord":"-122.381343","y_coord":"47.679297","zip_code":"98117"}
,{":@computed_region_kuhn_3gp2":"42",":@computed_region_q256_3sug":"17919",":@computed_region_ru88_fbhk":"38","address":"1400 Martin Luther King Jr Way S","location_1":{"type":"Point","coordinates":[-122.297814,47.589982]},"locid":"1600","name":"Sam Smith Park","pmaid":"4242","x_coord":"-122.297814","y_coord":"47.589982","zip_code":"98122"}
,{":@computed_region_kuhn_3gp2":"21",":@computed_region_q256_3sug":"18798",":@computed_region_ru88_fbhk":"23","address":"9053 1st Ave NW","location_1":{"type":"Point","coordinates":[-122.358701,47.695134]},"locid":"2493","name":"Sandel Playground","pmaid":"250","x_coord":"-122.358701","y_coord":"47.695134","zip_code":"98117"}
,{":@computed_region_kuhn_3gp2":"49",":@computed_region_q256_3sug":"18795",":@computed_region_ru88_fbhk":"2","address":"5717 SW Stevens St","location_1":{"type":"Point","coordinates":[-122.405592,47.577899]},"locid":"2539","name":"Schmitz Boulevard","pmaid":"4236","x_coord":"-122.405592","y_coord":"47.577899","zip_code":"98116"}
,{":@computed_region_kuhn_3gp2":"49",":@computed_region_q256_3sug":"18795",":@computed_region_ru88_fbhk":"41","address":"5551 SW Admiral Way","location_1":{"type":"Point","coordinates":[-122.400425,47.574375]},"locid":"1603","name":"Schmitz Preserve Park","pmaid":"465","x_coord":"-122.400425","y_coord":"47.574375","zip_code":"98116"}
,{":@computed_region_kuhn_3gp2":"49",":@computed_region_q256_3sug":"19581",":@computed_region_ru88_fbhk":"2","address":"1660 Harbor Ave SW","location_1":{"type":"Point","coordinates":[-122.381226,47.589941]},"locid":"1605","name":"Seacrest Park","pmaid":"455","x_coord":"-122.381226","y_coord":"47.589941","zip_code":"98126"}
,{":@computed_region_kuhn_3gp2":"30",":@computed_region_q256_3sug":"18081",":@computed_region_ru88_fbhk":"14","address":"1483 Alaskan Way","location_1":{"type":"Point","coordinates":[-122.342836,47.607411]},"locid":"2384","name":"Seattle Aquarium","pmaid":"335","x_coord":"-122.342836","y_coord":"47.607411","zip_code":"98101"}
,{":@computed_region_kuhn_3gp2":"51",":@computed_region_q256_3sug":"17920",":@computed_region_ru88_fbhk":"54","address":"11399 Seola Beach Dr SW","location_1":{"type":"Point","coordinates":[-122.374332,47.50039]},"locid":"1609","name":"Seola Park","pmaid":"466","x_coord":"-122.374332","y_coord":"47.50039","zip_code":"98146"}
,{":@computed_region_kuhn_3gp2":"4",":@computed_region_q256_3sug":"19578",":@computed_region_ru88_fbhk":"9","address":"1514 E Howell St","location_1":{"type":"Point","coordinates":[-122.312534,47.617684]},"locid":"1610","name":"Seven Hills Park","pmaid":"4466","x_coord":"-122.312534","y_coord":"47.617684","zip_code":"98122"}
,{":@computed_region_kuhn_3gp2":"43",":@computed_region_q256_3sug":"18800",":@computed_region_ru88_fbhk":"30","address":"5900 Lake Washington Blvd S","location_1":{"type":"Point","coordinates":[-122.250639,47.54923]},"locid":"1611","name":"Seward Park","pmaid":"428","x_coord":"-122.250639","y_coord":"47.54923","zip_code":"98118"}
,{":@computed_region_kuhn_3gp2":"42",":@computed_region_q256_3sug":"17919",":@computed_region_ru88_fbhk":"38","address":"3300 Sierra Dr S","location_1":{"type":"Point","coordinates":[-122.282492,47.573282]},"locid":"1616","name":"Sierra Place","pmaid":"3928","x_coord":"-122.282492","y_coord":"47.573282","zip_code":"98144"}
,{":@computed_region_kuhn_3gp2":"27",":@computed_region_q256_3sug":"19575",":@computed_region_ru88_fbhk":"33","address":"23rd Ave West","location_1":{"type":"Point","coordinates":[-122.387679,47.632602]},"locid":"1617","name":"Smith Cove","pmaid":"4433","x_coord":"-122.387679","y_coord":"47.632602","zip_code":"98199"}
,{":@computed_region_kuhn_3gp2":"51",":@computed_region_q256_3sug":"17916",":@computed_region_ru88_fbhk":"18","address":"7400 Fauntleroy Way SW","location_1":{"type":"Point","coordinates":[-122.390347,47.536414]},"locid":"1619","name":"Solstice Park","pmaid":"4453","x_coord":"-122.390347","y_coord":"47.536414","zip_code":"98136"}
,{":@computed_region_2day_rhn5":"131",":@computed_region_cyqu_gs94":"1",":@computed_region_kuhn_3gp2":"21",":@computed_region_q256_3sug":"18798",":@computed_region_ru88_fbhk":"3","address":"1590 NW 90th St","location_1":{"type":"Point","coordinates":[-122.378878,47.695416]},"locid":"1175","name":"Soundview Playfield","pmaid":"251","x_coord":"-122.378878","y_coord":"47.695416","zip_code":"98117"}
,{":@computed_region_kuhn_3gp2":"39",":@computed_region_q256_3sug":"19575",":@computed_region_ru88_fbhk":"50","address":"2500 11th Ave W","location_1":{"type":"Point","coordinates":[-122.37141,47.640849]},"locid":"1738","name":"Soundview Terrace","pmaid":"3987","x_coord":"-122.37141","y_coord":"47.640849","zip_code":"98119"}
,{":@computed_region_kuhn_3gp2":"15",":@computed_region_q256_3sug":"18388",":@computed_region_ru88_fbhk":"59","address":"9141 8th Ave S","location_1":{"type":"Point","coordinates":[-122.323649,47.520795]},"locid":"1624","name":"South Park Meadow","pmaid":"4048","x_coord":"-122.323649","y_coord":"47.520795","zip_code":"98108"}
,{":@computed_region_kuhn_3gp2":"15",":@computed_region_q256_3sug":"18388",":@computed_region_ru88_fbhk":"59","address":"738 S Sullivan St","location_1":{"type":"Point","coordinates":[-122.324159,47.528016]},"locid":"1177","name":"South Park Playground","pmaid":"467","x_coord":"-122.324159","y_coord":"47.528016","zip_code":"98108"}
,{":@computed_region_kuhn_3gp2":"4",":@computed_region_q256_3sug":"18376",":@computed_region_ru88_fbhk":"36","address":"3320 Fuhrman Ave E","location_1":{"type":"Point","coordinates":[-122.322486,47.652087]},"locid":"2431","name":"South Passage Point Park","pmaid":"377","x_coord":"-122.322486","y_coord":"47.652087","zip_code":"98102"}
,{":@computed_region_kuhn_3gp2":"8",":@computed_region_q256_3sug":"19578",":@computed_region_ru88_fbhk":"9","address":"1506 E Spring St","location_1":{"type":"Point","coordinates":[-122.3124,47.611801]},"locid":"2523","name":"Spring Street Mini Park","pmaid":"381","x_coord":"-122.3124","y_coord":"47.611801","zip_code":"98122"}
,{":@computed_region_kuhn_3gp2":"17",":@computed_region_q256_3sug":"19578",":@computed_region_ru88_fbhk":"9","address":"160 21st Ave","location_1":{"type":"Point","coordinates":[-122.304648,47.603091]},"locid":"2524","name":"Spruce Street Mini Park","pmaid":"3117","x_coord":"-122.304648","y_coord":"47.603091","zip_code":"98122"}
,{":@computed_region_kuhn_3gp2":"4",":@computed_region_q256_3sug":"18376",":@computed_region_ru88_fbhk":"16","address":"1500 Lakeview Blvd E","location_1":{"type":"Point","coordinates":[-122.322174,47.63115]},"locid":"2848","name":"St. Mark's Greenbelt","pmaid":"2848","x_coord":"-122.322174","y_coord":"47.63115","zip_code":"98102"}
,{":@computed_region_kuhn_3gp2":"43",":@computed_region_q256_3sug":"17919",":@computed_region_ru88_fbhk":"30","address":"3808 Lake Washington Blvd S","location_1":{"type":"Point","coordinates":[-122.277162,47.571222]},"locid":"1844","name":"Stan Sayres Memorial Park","pmaid":"425","x_coord":"-122.277162","y_coord":"47.571222","zip_code":"98118"}
,{":@computed_region_kuhn_3gp2":"41",":@computed_region_q256_3sug":"17919",":@computed_region_ru88_fbhk":"42","address":"2919 Beacon Ave S","location_1":{"type":"Point","coordinates":[-122.310563,47.577122]},"locid":"1630","name":"Stevens Place","pmaid":"3919","x_coord":"-122.310563","y_coord":"47.577122","zip_code":"98144"}
,{":@computed_region_kuhn_3gp2":"8",":@computed_region_q256_3sug":"18789",":@computed_region_ru88_fbhk":"32","address":"3809 E John St","location_1":{"type":"Point","coordinates":[-122.283592,47.619443]},"locid":"1631","name":"Stevens Triangle","pmaid":"3981","x_coord":"-122.283592","y_coord":"47.619443","zip_code":"98112"}
,{":@computed_region_kuhn_3gp2":"41",":@computed_region_q256_3sug":"17919",":@computed_region_ru88_fbhk":"42","address":"904 Sturgus Ave S","location_1":{"type":"Point","coordinates":[-122.314376,47.59409]},"locid":"1633","name":"Sturgus Park","pmaid":"592","x_coord":"-122.314376","y_coord":"47.59409","zip_code":"98144"}
,{":@computed_region_kuhn_3gp2":"46",":@computed_region_q256_3sug":"18800",":@computed_region_ru88_fbhk":"51","address":"9335 Sturtevant Ave S","location_1":{"type":"Point","coordinates":[-122.268561,47.51783]},"locid":"1633","name":"Sturtevant Ravine","pmaid":"290","x_coord":"-122.268561","y_coord":"47.51783","zip_code":"98118"}
,{":@computed_region_kuhn_3gp2":"4",":@computed_region_q256_3sug":"18376",":@computed_region_ru88_fbhk":"44","address":"Belmont Ave E & Bellevue Pl E","location_1":{"type":"Point","coordinates":[-122.325708,47.627081]},"locid":"1635","name":"Summit Place","pmaid":"383","x_coord":"-122.325708","y_coord":"47.627081","zip_code":"98102"}
,{":@computed_region_kuhn_3gp2":"5",":@computed_region_q256_3sug":"18376",":@computed_region_ru88_fbhk":"8","address":"200 Summit Ave E","location_1":{"type":"Point","coordinates":[-122.325298,47.619832]},"locid":"1636","name":"Summit Slope Park","pmaid":"4461","x_coord":"-122.325298","y_coord":"47.619832","zip_code":"98102"}
,{":@computed_region_kuhn_3gp2":"3",":@computed_region_q256_3sug":"18377",":@computed_region_ru88_fbhk":"61","address":"2301 N Northlake Way","location_1":{"type":"Point","coordinates":[-122.330723,47.650292]},"locid":"2500","name":"Sunnyside Ave N Boat Ramp","pmaid":"3903","x_coord":"-122.330723","y_coord":"47.650292","zip_code":"98103"}
,{":@computed_region_2day_rhn5":"135",":@computed_region_kuhn_3gp2":"23",":@computed_region_q256_3sug":"18798",":@computed_region_ru88_fbhk":"3","address":"7531 34th Ave NW","location_1":{"type":"Point","coordinates":[-122.400938,47.684034]},"locid":"1638","name":"Sunset Hill Park","pmaid":"252","x_coord":"-122.400938","y_coord":"47.684034","zip_code":"98117"}
,{":@computed_region_kuhn_3gp2":"2",":@computed_region_q256_3sug":"18386",":@computed_region_ru88_fbhk":"47","address":"105 NW 52nd St","location_1":{"type":"Point","coordinates":[-122.357602,47.666686]},"locid":"1639","name":"Sunset Place","pmaid":"3901","x_coord":"-122.357602","y_coord":"47.666686","zip_code":"98107"}
,{":@computed_region_kuhn_3gp2":"39",":@computed_region_q256_3sug":"19575",":@computed_region_ru88_fbhk":"50","address":"12th Ave W & W Howe St","location_1":{"type":"Point","coordinates":[-122.373209,47.633353]},"locid":"2416","name":"SW Queen Anne Greenbelt","pmaid":"234","x_coord":"-122.373209","y_coord":"47.633353","zip_code":"98119"}
,{":@computed_region_kuhn_3gp2":"8",":@computed_region_q256_3sug":"19578",":@computed_region_ru88_fbhk":"9","address":"1698 E Union St","location_1":{"type":"Point","coordinates":[-122.310543,47.613111]},"locid":"2591","name":"T.T. Minor Playground","pmaid":"3913","x_coord":"-122.310543","y_coord":"47.613111","zip_code":"98122"}
,{":@computed_region_kuhn_3gp2":"5",":@computed_region_q256_3sug":"18376",":@computed_region_ru88_fbhk":"8","address":"511 Boylston Ave E","location_1":{"type":"Point","coordinates":[-122.323444,47.62379]},"locid":"1076","name":"Tashkent Park","pmaid":"384","x_coord":"-122.323444","y_coord":"47.62379","zip_code":"98102"}
,{":@computed_region_kuhn_3gp2":"10",":@computed_region_q256_3sug":"18390",":@computed_region_ru88_fbhk":"56","address":"2001 Fairview Ave E","location_1":{"type":"Point","coordinates":[-122.329689,47.636742]},"locid":"1643","name":"Terry Pettus Park","pmaid":"3889","x_coord":"-122.329689","y_coord":"47.636742","zip_code":"98102"}
,{":@computed_region_kuhn_3gp2":"46",":@computed_region_q256_3sug":"18230",":@computed_region_ru88_fbhk":"52","address":"10088 Waters Ave S","location_1":{"type":"Point","coordinates":[-122.250038,47.510613]},"locid":"1644","name":"Thayer Place","pmaid":"4014","x_coord":"-122.250038","y_coord":"47.510613","zip_code":"98178"}
,{":@computed_region_kuhn_3gp2":"7",":@computed_region_q256_3sug":"18390",":@computed_region_ru88_fbhk":"50","address":"2401 6th Ave N","location_1":{"type":"Point","coordinates":[-122.344468,47.640523]},"locid":"1756","name":"Thomas C. Wales Park","pmaid":"1106","x_coord":"-122.344468","y_coord":"47.640523","zip_code":"98109"}
,{":@computed_region_kuhn_3gp2":"5",":@computed_region_q256_3sug":"18376",":@computed_region_ru88_fbhk":"8","address":"306 Bellevue Ave E","location_1":{"type":"Point","coordinates":[-122.326216,47.621036]},"locid":"1044","name":"Thomas St. Mini Park","pmaid":"386","x_coord":"-122.326216","y_coord":"47.621036","zip_code":"98102"}
,{":@computed_region_kuhn_3gp2":"27",":@computed_region_q256_3sug":"18235",":@computed_region_ru88_fbhk":"33","address":"1818 Thorndyke Ave W","location_1":{"type":"Point","coordinates":[-122.390161,47.635099]},"locid":"1648","name":"Thorndyke Park","pmaid":"343","x_coord":"-122.390161","y_coord":"47.635099","zip_code":"98199"}
,{":@computed_region_kuhn_3gp2":"28",":@computed_region_q256_3sug":"19579",":@computed_region_ru88_fbhk":"29","address":"13002 10th Ave NE","location_1":{"type":"Point","coordinates":[-122.307629,47.707034]},"locid":"0","name":"Thornton Creek Park #1","pmaid":"416","x_coord":"-122.307629","y_coord":"47.707034","zip_code":"98125"}
,{":@computed_region_kuhn_3gp2":"1",":@computed_region_q256_3sug":"18386",":@computed_region_ru88_fbhk":"4","address":"2853 NW 58th St","location_1":{"type":"Point","coordinates":[-122.395214,47.670709]},"locid":"1649","name":"Thyme Patch Park","pmaid":"4405","x_coord":"-122.395214","y_coord":"47.670709","zip_code":"98107"}
,{":@computed_region_kuhn_3gp2":"7",":@computed_region_q256_3sug":"19576",":@computed_region_ru88_fbhk":"56","address":"2701 5th Ave","location_1":{"type":"Point","coordinates":[-122.347411,47.618382]},"locid":"1651","name":"Tilikum Place","pmaid":"3909","x_coord":"-122.347411","y_coord":"47.618382","zip_code":"98121"}
,{":@computed_region_kuhn_3gp2":"39",":@computed_region_q256_3sug":"18390",":@computed_region_ru88_fbhk":"50","address":"1800 Taylor Ave N","location_1":{"type":"Point","coordinates":[-122.347039,47.635143]},"locid":"1654","name":"Trolley Hill Park","pmaid":"4421","x_coord":"-122.347039","y_coord":"47.635143","zip_code":"98109"}
,{":@computed_region_kuhn_3gp2":"20",":@computed_region_q256_3sug":"18379",":@computed_region_ru88_fbhk":"49","address":"316 S Jackson St","location_1":{"type":"Point","coordinates":[-122.330086,47.599362]},"locid":"1658","name":"Union Station Square","pmaid":"4007","x_coord":"-122.330086","y_coord":"47.599362","zip_code":"98104"}
,{":@computed_region_kuhn_3gp2":"48",":@computed_region_q256_3sug":"18383",":@computed_region_ru88_fbhk":"55","address":"5801 University Circle NE","location_1":{"type":"Point","coordinates":[-122.275181,47.67203]},"locid":"1659","name":"University Circle","pmaid":"424","x_coord":"-122.275181","y_coord":"47.67203","zip_code":"98105"}
,{":@computed_region_2day_rhn5":"127",":@computed_region_cyqu_gs94":"2",":@computed_region_kuhn_3gp2":"29",":@computed_region_q256_3sug":"19579",":@computed_region_ru88_fbhk":"29","address":"4275 NE 125th St","location_1":{"type":"Point","coordinates":[-122.28006,47.718937]},"locid":"1662","name":"University Lake Shore Place","pmaid":"3998","x_coord":"-122.28006","y_coord":"47.718937","zip_code":"98125"}
,{":@computed_region_kuhn_3gp2":"38",":@computed_region_q256_3sug":"18383",":@computed_region_ru88_fbhk":"60","address":"4745 9th Ave NE","location_1":{"type":"Point","coordinates":[-122.319312,47.664447]},"locid":"1180","name":"University Playground","pmaid":"435","x_coord":"-122.319312","y_coord":"47.664447","zip_code":"98105"}
,{":@computed_region_kuhn_3gp2":"27",":@computed_region_q256_3sug":"19575",":@computed_region_ru88_fbhk":"33","address":"2605 W Galer St","location_1":{"type":"Point","coordinates":[-122.390232,47.632049]},"locid":"1757","name":"Ursula Judkins Viewpoint","pmaid":"4451","x_coord":"-122.390232","y_coord":"47.632049","zip_code":"98199"}
,{":@computed_region_kuhn_3gp2":"44",":@computed_region_q256_3sug":"18800",":@computed_region_ru88_fbhk":"40","address":"7050 Beacon Ave S","location_1":{"type":"Point","coordinates":[-122.294068,47.539446]},"locid":"1874","name":"Van Asselt Playground","pmaid":"431","x_coord":"-122.294068","y_coord":"47.539446","zip_code":"98108"}
,{":@computed_region_kuhn_3gp2":"30",":@computed_region_q256_3sug":"18081",":@computed_region_ru88_fbhk":"14","address":"2001 Western Ave","location_1":{"type":"Point","coordinates":[-122.343869,47.610153]},"locid":"1664","name":"Victor Steinbrueck Park","pmaid":"338","x_coord":"-122.343869","y_coord":"47.610153","zip_code":"98121"}
,{":@computed_region_kuhn_3gp2":"26",":@computed_region_q256_3sug":"19579",":@computed_region_ru88_fbhk":"46","address":"1059 NE Northgate Way","location_1":{"type":"Point","coordinates":[-122.315554,47.709155]},"locid":"1666","name":"Victory Creek Park","pmaid":"4443","x_coord":"-122.315554","y_coord":"47.709155","zip_code":"98125"}
,{":@computed_region_kuhn_3gp2":"28",":@computed_region_q256_3sug":"19579",":@computed_region_ru88_fbhk":"29","address":"1737 NE 106th St","location_1":{"type":"Point","coordinates":[-122.307834,47.705672]},"locid":"1875","name":"Victory Heights Playground","pmaid":"438","x_coord":"-122.307834","y_coord":"47.705672","zip_code":"98125"}
,{":@computed_region_kuhn_3gp2":"48",":@computed_region_q256_3sug":"18792",":@computed_region_ru88_fbhk":"55","address":"4408 NE 70th St","location_1":{"type":"Point","coordinates":[-122.279969,47.679747]},"locid":"1876","name":"View Ridge Playfield","pmaid":"444","x_coord":"-122.279969","y_coord":"47.679747","zip_code":"98115"}
,{":@computed_region_kuhn_3gp2":"8",":@computed_region_q256_3sug":"18789",":@computed_region_ru88_fbhk":"32","address":"151 Lake Washington Blvd E","location_1":{"type":"Point","coordinates":[-122.282003,47.61875]},"locid":"1667","name":"Viretta Park","pmaid":"3098","x_coord":"-122.282003","y_coord":"47.61875","zip_code":"98112"}
,{":@computed_region_2day_rhn5":"117",":@computed_region_cyqu_gs94":"2",":@computed_region_kuhn_3gp2":"26",":@computed_region_q256_3sug":"19579",":@computed_region_ru88_fbhk":"29","address":"2700 NE 123rd St","location_1":{"type":"Point","coordinates":[-122.299374,47.717955]},"locid":"1668","name":"Virgil Flaim Park","pmaid":"4002","x_coord":"-122.299374","y_coord":"47.717955","zip_code":"98125"}
,{":@computed_region_kuhn_3gp2":"4",":@computed_region_q256_3sug":"18789",":@computed_region_ru88_fbhk":"44","address":"1247 15th Ave E","location_1":{"type":"Point","coordinates":[-122.315568,47.630378]},"locid":"1669","name":"Volunteer Park","pmaid":"399","x_coord":"-122.315568","y_coord":"47.630378","zip_code":"98112"}
,{":@computed_region_kuhn_3gp2":"4",":@computed_region_q256_3sug":"18376",":@computed_region_ru88_fbhk":"44","address":"1400 E Galer St","location_1":{"type":"Point","coordinates":[-122.315708,47.632063]},"locid":"0","name":"Volunteer Park Conservatory","pmaid":"1000399","x_coord":"-122.315708","y_coord":"47.632063","zip_code":"98112"}
,{":@computed_region_kuhn_3gp2":"3",":@computed_region_q256_3sug":"18377",":@computed_region_ru88_fbhk":"61","address":"4219 Wallingford Ave N","location_1":{"type":"Point","coordinates":[-122.337444,47.658544]},"locid":"2336","name":"Wallingford Playfield","pmaid":"449","x_coord":"-122.337444","y_coord":"47.658544","zip_code":"98103"}
,{":@computed_region_kuhn_3gp2":"3",":@computed_region_q256_3sug":"18377",":@computed_region_ru88_fbhk":"61","address":"1800 N Northlake Way","location_1":{"type":"Point","coordinates":[-122.336152,47.647345]},"locid":"0","name":"Wallingford Steps","pmaid":"1000004","x_coord":"-122.336152","y_coord":"47.647345","zip_code":"98103"}
,{":@computed_region_kuhn_3gp2":"51",":@computed_region_q256_3sug":"19581",":@computed_region_ru88_fbhk":"24","address":"6920 34th Ave SW","location_1":{"type":"Point","coordinates":[-122.373415,47.54017]},"locid":"1748","name":"Walt Hundley Playfield","pmaid":"3941","x_coord":"-122.373415","y_coord":"47.54017","zip_code":"98126"}
,{":@computed_region_kuhn_3gp2":"40",":@computed_region_q256_3sug":"18390",":@computed_region_ru88_fbhk":"50","address":"4th Ave N & Ward St","location_1":{"type":"Point","coordinates":[-122.349245,47.627747]},"locid":"1684","name":"Ward Springs Park","pmaid":"763","x_coord":"-122.349245","y_coord":"47.627747","zip_code":"98109"}
,{":@computed_region_kuhn_3gp2":"48",":@computed_region_q256_3sug":"18792",":@computed_region_ru88_fbhk":"55","address":"7400 Sand Point Way NE","location_1":{"type":"Point","coordinates":[-122.255084,47.680304]},"locid":"2394","name":"Warren G. Magnuson Park","pmaid":"398","x_coord":"-122.255084","y_coord":"47.680304","zip_code":"98115"}
,{":@computed_region_kuhn_3gp2":"6",":@computed_region_q256_3sug":"18789",":@computed_region_ru88_fbhk":"36","address":"2300 Arboretum Dr E","location_1":{"type":"Point","coordinates":[-122.294835,47.636477]},"locid":"0","name":"Washington Park Arboretum","pmaid":"393","x_coord":"-122.294835","y_coord":"47.636477","zip_code":"98112"}
,{":@computed_region_kuhn_3gp2":"6",":@computed_region_q256_3sug":"18789",":@computed_region_ru88_fbhk":"36","address":"1017 Lake Washington Blvd E","location_1":{"type":"Point","coordinates":[-122.293925,47.627064]},"locid":"393","name":"Washington Park Playfield","pmaid":"1100393","x_coord":"-122.293925","y_coord":"47.627064","zip_code":"98112"}
,{":@computed_region_kuhn_3gp2":"20",":@computed_region_q256_3sug":"18379",":@computed_region_ru88_fbhk":"49","address":"199 Alaskan Way S","location_1":{"type":"Point","coordinates":[-122.336045,47.601007]},"locid":"2499","name":"Washington Street Public Boat Landing","pmaid":"4165","x_coord":"-122.336045","y_coord":"47.601007","zip_code":"98104"}
,{":@computed_region_kuhn_3gp2":"30",":@computed_region_q256_3sug":"18081",":@computed_region_ru88_fbhk":"14","address":"1401 Alaskan Way","location_1":{"type":"Point","coordinates":[-122.342196,47.606778]},"locid":"1689","name":"Waterfront Park","pmaid":"3973","x_coord":"-122.342196","y_coord":"47.606778","zip_code":"98101"}
,{":@computed_region_kuhn_3gp2":"3",":@computed_region_q256_3sug":"18377",":@computed_region_ru88_fbhk":"61","address":"2119 N Northlake Way","location_1":{"type":"Point","coordinates":[-122.332567,47.646349]},"locid":"1692","name":"Waterway 19","pmaid":"4083","x_coord":"-122.332567","y_coord":"47.646349","zip_code":"98103"}
,{":@computed_region_kuhn_3gp2":"50",":@computed_region_q256_3sug":"18795",":@computed_region_ru88_fbhk":"2","address":"4035 Beach Dr SW","location_1":{"type":"Point","coordinates":[-122.409506,47.568247]},"locid":"1694","name":"Weather Watch Park","pmaid":"3966","x_coord":"-122.409506","y_coord":"47.568247","zip_code":"98116"}
,{":@computed_region_2day_rhn5":"135",":@computed_region_kuhn_3gp2":"23",":@computed_region_q256_3sug":"18798",":@computed_region_ru88_fbhk":"3","address":"3025 NW 68th St","location_1":{"type":"Point","coordinates":[-122.397851,47.677832]},"locid":"1045","name":"Webster Park","pmaid":"3894","x_coord":"-122.397851","y_coord":"47.677832","zip_code":"98117"}
,{":@computed_region_kuhn_3gp2":"48",":@computed_region_q256_3sug":"18792",":@computed_region_ru88_fbhk":"55","address":"8126 31st Ave NE","location_1":{"type":"Point","coordinates":[-122.294772,47.688151]},"locid":"1695","name":"Wedgwood Square","pmaid":"3899","x_coord":"-122.294772","y_coord":"47.688151","zip_code":"98115"}
,{":@computed_region_kuhn_3gp2":"13",":@computed_region_q256_3sug":"18385",":@computed_region_ru88_fbhk":"48","address":"W Marginal Way SW & Highland Park Way SW","location_1":{"type":"Point","coordinates":[-122.356966,47.563271]},"locid":"2603","name":"West Duwamish Greenbelt","pmaid":"4401","x_coord":"-122.356966","y_coord":"47.563271","zip_code":"98106"}
,{":@computed_region_kuhn_3gp2":"39",":@computed_region_q256_3sug":"18390",":@computed_region_ru88_fbhk":"50","address":"244 W Ewing St","location_1":{"type":"Point","coordinates":[-122.360602,47.65205]},"locid":"2401","name":"West Ewing Mini Park","pmaid":"3694","x_coord":"-122.360602","y_coord":"47.65205","zip_code":"98119"}
,{":@computed_region_kuhn_3gp2":"6",":@computed_region_q256_3sug":"18789",":@computed_region_ru88_fbhk":"36","address":"2815 W Park Dr E","location_1":{"type":"Point","coordinates":[-122.30982,47.646219]},"locid":"2402","name":"West Montlake Park","pmaid":"375","x_coord":"-122.30982","y_coord":"47.646219","zip_code":"98112"}
,{":@computed_region_kuhn_3gp2":"39",":@computed_region_q256_3sug":"19575",":@computed_region_ru88_fbhk":"50","address":"150 W Blaine St","location_1":{"type":"Point","coordinates":[-122.359504,47.635514]},"locid":"2561","name":"West Queen Anne Playfield","pmaid":"330","x_coord":"-122.359504","y_coord":"47.635514","zip_code":"98119"}
,{":@computed_region_kuhn_3gp2":"50",":@computed_region_q256_3sug":"18385",":@computed_region_ru88_fbhk":"45","address":"4600 35th Ave SW","location_1":{"type":"Point","coordinates":[-122.369657,47.55986]},"locid":"2566","name":"West Seattle Golf Course","pmaid":"469","x_coord":"-122.369657","y_coord":"47.55986","zip_code":"98126"}
,{":@computed_region_kuhn_3gp2":"50",":@computed_region_q256_3sug":"19581",":@computed_region_ru88_fbhk":"45","address":"4432 35th Ave SW","location_1":{"type":"Point","coordinates":[-122.374348,47.562826]},"locid":"2528","name":"West Seattle Stadium","pmaid":"472","x_coord":"-122.374348","y_coord":"47.562826","zip_code":"98126"}
,{":@computed_region_kuhn_3gp2":"15",":@computed_region_q256_3sug":"18385",":@computed_region_ru88_fbhk":"25","address":"9000 8th Ave SW","location_1":{"type":"Point","coordinates":[-122.341719,47.525783]},"locid":"1701","name":"Westcrest Park","pmaid":"468","x_coord":"-122.341719","y_coord":"47.525783","zip_code":"98106"}
,{":@computed_region_kuhn_3gp2":"7",":@computed_region_q256_3sug":"18390",":@computed_region_ru88_fbhk":"50","address":"Westlake Ave & Halladay St","location_1":{"type":"Point","coordinates":[-122.34338,47.641586]},"locid":"1702","name":"Westlake Greenbelt","pmaid":"494","x_coord":"-122.34338","y_coord":"47.641586","zip_code":"98109"}
,{":@computed_region_kuhn_3gp2":"24",":@computed_region_q256_3sug":"18081",":@computed_region_ru88_fbhk":"14","address":"401 Pine St","location_1":{"type":"Point","coordinates":[-122.33724,47.611099]},"locid":"1703","name":"Westlake Park","pmaid":"332","x_coord":"-122.33724","y_coord":"47.611099","zip_code":"98101"}
,{":@computed_region_kuhn_3gp2":"31",":@computed_region_q256_3sug":"18081",":@computed_region_ru88_fbhk":"56","address":"1900 Westlake Ave","location_1":{"type":"Point","coordinates":[-122.337285,47.613627]},"locid":"1705","name":"Westlake Square","pmaid":"334","x_coord":"-122.337285","y_coord":"47.613627","zip_code":"98109"}
,{":@computed_region_kuhn_3gp2":"8",":@computed_region_q256_3sug":"19578",":@computed_region_ru88_fbhk":"9","address":"1814 30th Ave","location_1":{"type":"Point","coordinates":[-122.29294,47.618021]},"locid":"2530","name":"William Grose Park","pmaid":"385","x_coord":"-122.29294","y_coord":"47.618021","zip_code":"98122"}
,{":@computed_region_kuhn_3gp2":"4",":@computed_region_q256_3sug":"18789",":@computed_region_ru88_fbhk":"8","address":"199 15th Ave E","location_1":{"type":"Point","coordinates":[-122.313094,47.619809]},"locid":"1707","name":"Williams Place","pmaid":"4016","x_coord":"-122.313094","y_coord":"47.619809","zip_code":"98112"}
,{":@computed_region_kuhn_3gp2":"39",":@computed_region_q256_3sug":"18390",":@computed_region_ru88_fbhk":"50","address":"McGraw St between 2nd Ave N & Nobb Hill Ave N","location_1":{"type":"Point","coordinates":[-122.352314,47.639775]},"locid":"1814","name":"Wolf Creek Ravine Natural Area","pmaid":"278","x_coord":"-122.352314","y_coord":"47.639775","zip_code":"98109"}
,{":@computed_region_kuhn_3gp2":"3",":@computed_region_q256_3sug":"18377",":@computed_region_ru88_fbhk":"47","address":"1000 N 50th St","location_1":{"type":"Point","coordinates":[-122.344218,47.668906]},"locid":"1815","name":"Woodland Park","pmaid":"292","x_coord":"-122.344218","y_coord":"47.668906","zip_code":"98103"}
,{":@computed_region_kuhn_3gp2":"2",":@computed_region_q256_3sug":"18377",":@computed_region_ru88_fbhk":"47","address":"750 N 50th St","location_1":{"type":"Point","coordinates":[-122.35054,47.666499]},"locid":"292","name":"Woodland Park Rose Garden","pmaid":"1000292","x_coord":"-122.35054","y_coord":"47.666499","zip_code":"98103"}
,{":@computed_region_kuhn_3gp2":"2",":@computed_region_q256_3sug":"18377",":@computed_region_ru88_fbhk":"47","address":"700 N 50th St","location_1":{"type":"Point","coordinates":[-122.35043,47.666183]},"locid":"9909","name":"Woodland Park Zoo","pmaid":"200","x_coord":"-122.35043","y_coord":"47.666183","zip_code":"98103"}
,{":@computed_region_kuhn_3gp2":"16",":@computed_region_q256_3sug":"18379",":@computed_region_ru88_fbhk":"26","address":"835 Yesler Way","location_1":{"type":"Point","coordinates":[-122.320083,47.601262]},"locid":"0","name":"Yesler Playfield","pmaid":"4563","x_coord":"-122.320083","y_coord":"47.601262","zip_code":"98104"}
,{":@computed_region_kuhn_3gp2":"42",":@computed_region_q256_3sug":"17919",":@computed_region_ru88_fbhk":"10","address":"3650 Renton Ave S","location_1":{"type":"Point","coordinates":[-122.295537,47.570461]},"locid":"1712","name":"York Park","pmaid":"580","x_coord":"-122.295537","y_coord":"47.570461","zip_code":"98144"}
,{":@computed_region_kuhn_3gp2":"42",":@computed_region_q256_3sug":"17919",":@computed_region_ru88_fbhk":"38","address":"3327 34th Ave S","location_1":{"type":"Point","coordinates":[-122.290713,47.572695]},"locid":"1816","name":"York Playground","pmaid":"3926","x_coord":"-122.290713","y_coord":"47.572695","zip_code":"98126"}]
